[{
  "kind": "airport",
  "id": "GXF",
  "mac_id": null,
  "name": "Sayun",
  "country_code": "YE",
  "longitude": "48.784722222222221",
  "latitude": "15.963055555555554",
  "timezone_id": "Asia/Aden"
}, {
  "kind": "airport",
  "id": "ADE",
  "mac_id": null,
  "name": "Aden",
  "country_code": "YE",
  "longitude": "45.030555555555551",
  "latitude": "12.827777777777778",
  "timezone_id": "Asia/Aden"
}, {
  "kind": "airport",
  "id": "SAH",
  "mac_id": null,
  "name": "Sana\u0027a",
  "country_code": "YE",
  "longitude": "44.219722222222224",
  "latitude": "15.47638888888889",
  "timezone_id": "Asia/Aden"
}, {
  "kind": "airport",
  "id": "SCT",
  "mac_id": null,
  "name": "Socotra",
  "country_code": "YE",
  "longitude": "53.905833333333334",
  "latitude": "12.630555555555556",
  "timezone_id": "Asia/Aden"
}, {
  "kind": "airport",
  "id": "HOD",
  "mac_id": null,
  "name": "Hodeidah",
  "country_code": "YE",
  "longitude": "42.982777777777777",
  "latitude": "14.747222222222222",
  "timezone_id": "Asia/Aden"
}, {
  "kind": "airport",
  "id": "TAI",
  "mac_id": null,
  "name": "Taizz",
  "country_code": "YE",
  "longitude": "44.139166666666668",
  "latitude": "13.685833333333333",
  "timezone_id": "Asia/Aden"
}, {
  "kind": "airport",
  "id": "RIY",
  "mac_id": null,
  "name": "Mukalla",
  "country_code": "YE",
  "longitude": "49.375",
  "latitude": "14.662777777777778",
  "timezone_id": "Asia/Aden"
}, {
  "kind": "airport",
  "id": "NAJ",
  "mac_id": null,
  "name": "Nakchivan",
  "country_code": "AZ",
  "longitude": "45.458888888888893",
  "latitude": "39.190277777777773",
  "timezone_id": "Asia/Baku"
}, {
  "kind": "airport",
  "id": "GYD",
  "mac_id": null,
  "name": "Baku",
  "country_code": "AZ",
  "longitude": "50.051944444444445",
  "latitude": "40.465",
  "timezone_id": "Asia/Baku"
}, {
  "kind": "airport",
  "id": "KVD",
  "mac_id": null,
  "name": "Ganja",
  "country_code": "AZ",
  "longitude": "46.31666666666667",
  "latitude": "40.733333333333334",
  "timezone_id": "Asia/Baku"
}, {
  "kind": "airport",
  "id": "DIL",
  "mac_id": null,
  "name": "Dili",
  "country_code": "TL",
  "longitude": "125.52472222222222",
  "latitude": "-8.5463888888888881",
  "timezone_id": "Asia/Dili"
}, {
  "kind": "airport",
  "id": "HVD",
  "mac_id": null,
  "name": "Khovd",
  "country_code": "MN",
  "longitude": "91.624166666666653",
  "latitude": "47.960833333333333",
  "timezone_id": "Asia/Hovd"
}, {
  "kind": "airport",
  "id": "OMS",
  "mac_id": null,
  "name": "Omsk",
  "country_code": "RU",
  "longitude": "73.3",
  "latitude": "54.966666666666669",
  "timezone_id": "Asia/Omsk"
}, {
  "kind": "airport",
  "id": "BAX",
  "mac_id": null,
  "name": "Barnaul",
  "country_code": "RU",
  "longitude": "83.547777777777782",
  "latitude": "53.361388888888889",
  "timezone_id": "Asia/Omsk"
}, {
  "kind": "airport",
  "id": "GUW",
  "mac_id": null,
  "name": "Atyrau",
  "country_code": "KZ",
  "longitude": "51.82555555555556",
  "latitude": "47.12027777777778",
  "timezone_id": "Asia/Oral"
}, {
  "kind": "airport",
  "id": "AMM",
  "mac_id": null,
  "name": "Amman",
  "country_code": "JO",
  "longitude": "35.993333333333332",
  "latitude": "31.722499999999997",
  "timezone_id": "Asia/Amman"
}, {
  "kind": "airport",
  "id": "AQJ",
  "mac_id": null,
  "name": "Aqaba",
  "country_code": "JO",
  "longitude": "35.016666666666666",
  "latitude": "29.616666666666667",
  "timezone_id": "Asia/Amman"
}, {
  "kind": "airport",
  "id": "SCO",
  "mac_id": null,
  "name": "Aktau",
  "country_code": "KZ",
  "longitude": "51.090833333333336",
  "latitude": "43.86",
  "timezone_id": "Asia/Aqtau"
}, {
  "kind": "airport",
  "id": "CGP",
  "mac_id": null,
  "name": "Chittagong",
  "country_code": "BD",
  "longitude": "91.825555555555553",
  "latitude": "22.2575",
  "timezone_id": "Asia/Dhaka"
}, {
  "kind": "airport",
  "id": "DAC",
  "mac_id": null,
  "name": "Dhaka",
  "country_code": "BD",
  "longitude": "90.405277777777783",
  "latitude": "23.843055555555555",
  "timezone_id": "Asia/Dhaka"
}, {
  "kind": "airport",
  "id": "ZYL",
  "mac_id": null,
  "name": "Sylhet",
  "country_code": "BD",
  "longitude": "91.871666666666655",
  "latitude": "24.961388888888887",
  "timezone_id": "Asia/Dhaka"
}, {
  "kind": "airport",
  "id": "AUH",
  "mac_id": null,
  "name": "Abu Dhabi",
  "country_code": "AE",
  "longitude": "54.65",
  "latitude": "24.441666666666666",
  "timezone_id": "Asia/Dubai"
}, {
  "kind": "airport",
  "id": "DXB",
  "mac_id": "city/DXB",
  "name": "Dubai",
  "country_code": "AE",
  "longitude": "55.357777777777777",
  "latitude": "25.25",
  "timezone_id": "Asia/Dubai"
}, {
  "kind": "airport",
  "id": "DWC",
  "mac_id": "city/DXB",
  "name": "Dubai",
  "country_code": "AE",
  "longitude": "55.175277777777772",
  "latitude": "24.918055555555558",
  "timezone_id": "Asia/Dubai"
}, {
  "kind": "airport",
  "id": "SHJ",
  "mac_id": null,
  "name": "Sharjah",
  "country_code": "AE",
  "longitude": "55.517222222222223",
  "latitude": "25.328611111111112",
  "timezone_id": "Asia/Dubai"
}, {
  "kind": "airport",
  "id": "AAN",
  "mac_id": null,
  "name": "Al Ain",
  "country_code": "AE",
  "longitude": "55.61888888888889",
  "latitude": "24.255",
  "timezone_id": "Asia/Dubai"
}, {
  "kind": "airport",
  "id": "MZR",
  "mac_id": null,
  "name": "Mazar-e Sharif",
  "country_code": "AF",
  "longitude": "67.209722222222226",
  "latitude": "36.706944444444446",
  "timezone_id": "Asia/Kabul"
}, {
  "kind": "airport",
  "id": "HEA",
  "mac_id": null,
  "name": "Herat",
  "country_code": "AF",
  "longitude": "62.228333333333332",
  "latitude": "34.21",
  "timezone_id": "Asia/Kabul"
}, {
  "kind": "airport",
  "id": "KBL",
  "mac_id": null,
  "name": "Kabul",
  "country_code": "AF",
  "longitude": "69.213888888888889",
  "latitude": "34.563888888888883",
  "timezone_id": "Asia/Kabul"
}, {
  "kind": "airport",
  "id": "MFM",
  "mac_id": null,
  "name": "Macau",
  "country_code": "MO",
  "longitude": "113.57277777777777",
  "latitude": "22.156388888888888",
  "timezone_id": "Asia/Macau"
}, {
  "kind": "airport",
  "id": "DOH",
  "mac_id": null,
  "name": "Doha",
  "country_code": "QA",
  "longitude": "51.608333333333334",
  "latitude": "25.274444444444445",
  "timezone_id": "Asia/Qatar"
}, {
  "kind": "airport",
  "id": "RSU",
  "mac_id": null,
  "name": "Yeosu/Suncheon",
  "country_code": "KR",
  "longitude": "127.61388888888888",
  "latitude": "34.839722222222221",
  "timezone_id": "Asia/Seoul"
}, {
  "kind": "airport",
  "id": "ICN",
  "mac_id": "city/SEL",
  "name": "Seoul",
  "country_code": "KR",
  "longitude": "126.43972222222223",
  "latitude": "37.463055555555556",
  "timezone_id": "Asia/Seoul"
}, {
  "kind": "airport",
  "id": "PUS",
  "mac_id": null,
  "name": "Busan",
  "country_code": "KR",
  "longitude": "128.94638888888889",
  "latitude": "35.17305555555555",
  "timezone_id": "Asia/Seoul"
}, {
  "kind": "airport",
  "id": "CJU",
  "mac_id": null,
  "name": "Jeju",
  "country_code": "KR",
  "longitude": "126.495",
  "latitude": "33.505555555555553",
  "timezone_id": "Asia/Seoul"
}, {
  "kind": "airport",
  "id": "CJJ",
  "mac_id": null,
  "name": "Cheongju",
  "country_code": "KR",
  "longitude": "127.49916666666667",
  "latitude": "36.716666666666669",
  "timezone_id": "Asia/Seoul"
}, {
  "kind": "airport",
  "id": "KUV",
  "mac_id": null,
  "name": "Gunsan",
  "country_code": "KR",
  "longitude": "126.61555555555555",
  "latitude": "35.92583333333333",
  "timezone_id": "Asia/Seoul"
}, {
  "kind": "airport",
  "id": "GMP",
  "mac_id": "city/SEL",
  "name": "Seoul",
  "country_code": "KR",
  "longitude": "126.78527777777778",
  "latitude": "37.551111111111105",
  "timezone_id": "Asia/Seoul"
}, {
  "kind": "airport",
  "id": "YNY",
  "mac_id": null,
  "name": "Yangyang",
  "country_code": "KR",
  "longitude": "128.66277777777779",
  "latitude": "38.058611111111105",
  "timezone_id": "Asia/Seoul"
}, {
  "kind": "airport",
  "id": "WJU",
  "mac_id": null,
  "name": "Wonju",
  "country_code": "KR",
  "longitude": "127.92",
  "latitude": "37.341944444444444",
  "timezone_id": "Asia/Seoul"
}, {
  "kind": "airport",
  "id": "KPO",
  "mac_id": null,
  "name": "Pohang",
  "country_code": "KR",
  "longitude": "129.42",
  "latitude": "35.986111111111114",
  "timezone_id": "Asia/Seoul"
}, {
  "kind": "airport",
  "id": "TAE",
  "mac_id": null,
  "name": "Daegu",
  "country_code": "KR",
  "longitude": "128.6588888888889",
  "latitude": "35.894166666666663",
  "timezone_id": "Asia/Seoul"
}, {
  "kind": "airport",
  "id": "HIN",
  "mac_id": null,
  "name": "Jinju",
  "country_code": "KR",
  "longitude": "128.07027777777776",
  "latitude": "35.088611111111113",
  "timezone_id": "Asia/Seoul"
}, {
  "kind": "airport",
  "id": "MWX",
  "mac_id": null,
  "name": "Muan",
  "country_code": "KR",
  "longitude": "126.38277777777778",
  "latitude": "34.991388888888892",
  "timezone_id": "Asia/Seoul"
}, {
  "kind": "airport",
  "id": "KWJ",
  "mac_id": null,
  "name": "Gwangju",
  "country_code": "KR",
  "longitude": "126.81083333333333",
  "latitude": "35.123333333333335",
  "timezone_id": "Asia/Seoul"
}, {
  "kind": "airport",
  "id": "USN",
  "mac_id": null,
  "name": "Ulsan",
  "country_code": "KR",
  "longitude": "129.35166666666666",
  "latitude": "35.593611111111116",
  "timezone_id": "Asia/Seoul"
}, {
  "kind": "airport",
  "id": "CTS",
  "mac_id": null,
  "name": "Sapporo",
  "country_code": "JP",
  "longitude": "141.66916666666665",
  "latitude": "42.795833333333334",
  "timezone_id": "Asia/Tokyo"
}, {
  "kind": "airport",
  "id": "TKS",
  "mac_id": null,
  "name": "Tokushima",
  "country_code": "JP",
  "longitude": "134.60666666666665",
  "latitude": "34.132777777777775",
  "timezone_id": "Asia/Tokyo"
}, {
  "kind": "airport",
  "id": "KCZ",
  "mac_id": null,
  "name": "Kochi",
  "country_code": "JP",
  "longitude": "133.67694444444444",
  "latitude": "33.541111111111107",
  "timezone_id": "Asia/Tokyo"
}, {
  "kind": "airport",
  "id": "MBE",
  "mac_id": null,
  "name": "Monbetsu",
  "country_code": "JP",
  "longitude": "143.40416666666667",
  "latitude": "44.303888888888885",
  "timezone_id": "Asia/Tokyo"
}, {
  "kind": "airport",
  "id": "SYO",
  "mac_id": null,
  "name": "Shonai",
  "country_code": "JP",
  "longitude": "139.78722222222223",
  "latitude": "38.812222222222218",
  "timezone_id": "Asia/Tokyo"
}, {
  "kind": "airport",
  "id": "ONJ",
  "mac_id": null,
  "name": "Odate/Noshiro",
  "country_code": "JP",
  "longitude": "140.3752777777778",
  "latitude": "40.189166666666665",
  "timezone_id": "Asia/Tokyo"
}, {
  "kind": "airport",
  "id": "ITM",
  "mac_id": "city/OSA",
  "name": "Osaka",
  "country_code": "JP",
  "longitude": "135.44166666666666",
  "latitude": "34.781666666666666",
  "timezone_id": "Asia/Tokyo"
}, {
  "kind": "airport",
  "id": "KMI",
  "mac_id": null,
  "name": "Miyazaki",
  "country_code": "JP",
  "longitude": "131.44388888888889",
  "latitude": "31.874444444444446",
  "timezone_id": "Asia/Tokyo"
}, {
  "kind": "airport",
  "id": "MMY",
  "mac_id": null,
  "name": "Miyako",
  "country_code": "JP",
  "longitude": "125.29722222222222",
  "latitude": "24.780833333333334",
  "timezone_id": "Asia/Tokyo"
}, {
  "kind": "airport",
  "id": "MYJ",
  "mac_id": null,
  "name": "Matsuyama",
  "country_code": "JP",
  "longitude": "132.69972222222222",
  "latitude": "33.827222222222225",
  "timezone_id": "Asia/Tokyo"
}, {
  "kind": "airport",
  "id": "MMJ",
  "mac_id": null,
  "name": "Matsumoto",
  "country_code": "JP",
  "longitude": "137.92611111111111",
  "latitude": "36.164444444444442",
  "timezone_id": "Asia/Tokyo"
}, {
  "kind": "airport",
  "id": "UKB",
  "mac_id": "city/OSA",
  "name": "Osaka",
  "country_code": "JP",
  "longitude": "135.22861111111112",
  "latitude": "34.636944444444445",
  "timezone_id": "Asia/Tokyo"
}, {
  "kind": "airport",
  "id": "MYE",
  "mac_id": null,
  "name": "Miyakejima",
  "country_code": "JP",
  "longitude": "139.5625",
  "latitude": "34.06944444444445",
  "timezone_id": "Asia/Tokyo"
}, {
  "kind": "airport",
  "id": "MSJ",
  "mac_id": null,
  "name": "Misawa",
  "country_code": "JP",
  "longitude": "141.37194444444447",
  "latitude": "40.700277777777778",
  "timezone_id": "Asia/Tokyo"
}, {
  "kind": "airport",
  "id": "ASJ",
  "mac_id": null,
  "name": "Amami",
  "country_code": "JP",
  "longitude": "129.6975",
  "latitude": "28.416944444444447",
  "timezone_id": "Asia/Tokyo"
}, {
  "kind": "airport",
  "id": "OIM",
  "mac_id": null,
  "name": "Oshima",
  "country_code": "JP",
  "longitude": "139.36499999999998",
  "latitude": "34.779166666666669",
  "timezone_id": "Asia/Tokyo"
}, {
  "kind": "airport",
  "id": "HND",
  "mac_id": "city/TYO",
  "name": "Tokyo",
  "country_code": "JP",
  "longitude": "139.76583333333335",
  "latitude": "35.55361111111111",
  "timezone_id": "Asia/Tokyo"
}, {
  "kind": "airport",
  "id": "OIT",
  "mac_id": null,
  "name": "Oita",
  "country_code": "JP",
  "longitude": "131.73722222222221",
  "latitude": "33.479444444444447",
  "timezone_id": "Asia/Tokyo"
}, {
  "kind": "airport",
  "id": "KMQ",
  "mac_id": null,
  "name": "Komatsu",
  "country_code": "JP",
  "longitude": "136.41694444444443",
  "latitude": "36.393888888888888",
  "timezone_id": "Asia/Tokyo"
}, {
  "kind": "airport",
  "id": "UBJ",
  "mac_id": null,
  "name": "Ube",
  "country_code": "JP",
  "longitude": "131.27444444444447",
  "latitude": "33.92583333333333",
  "timezone_id": "Asia/Tokyo"
}, {
  "kind": "airport",
  "id": "OKA",
  "mac_id": null,
  "name": "Okinawa",
  "country_code": "JP",
  "longitude": "127.65",
  "latitude": "26.2",
  "timezone_id": "Asia/Tokyo"
}, {
  "kind": "airport",
  "id": "OBO",
  "mac_id": null,
  "name": "Obihiro",
  "country_code": "JP",
  "longitude": "143.21249999999998",
  "latitude": "42.731944444444444",
  "timezone_id": "Asia/Tokyo"
}, {
  "kind": "airport",
  "id": "FKS",
  "mac_id": null,
  "name": "Fukushima",
  "country_code": "JP",
  "longitude": "140.43055555555554",
  "latitude": "37.2275",
  "timezone_id": "Asia/Tokyo"
}, {
  "kind": "airport",
  "id": "KKJ",
  "mac_id": null,
  "name": "Kitakyushu",
  "country_code": "JP",
  "longitude": "131.03472222222223",
  "latitude": "33.845833333333339",
  "timezone_id": "Asia/Tokyo"
}, {
  "kind": "airport",
  "id": "IZO",
  "mac_id": null,
  "name": "Izumo",
  "country_code": "JP",
  "longitude": "132.88944444444445",
  "latitude": "35.409444444444446",
  "timezone_id": "Asia/Tokyo"
}, {
  "kind": "airport",
  "id": "TOY",
  "mac_id": null,
  "name": "Toyama",
  "country_code": "JP",
  "longitude": "137.1875",
  "latitude": "36.648333333333333",
  "timezone_id": "Asia/Tokyo"
}, {
  "kind": "airport",
  "id": "IKI",
  "mac_id": null,
  "name": "Iki",
  "country_code": "JP",
  "longitude": "129.78833333333333",
  "latitude": "33.745555555555555",
  "timezone_id": "Asia/Tokyo"
}, {
  "kind": "airport",
  "id": "ISG",
  "mac_id": null,
  "name": "Ishigaki",
  "country_code": "JP",
  "longitude": "124.245",
  "latitude": "24.39638888888889",
  "timezone_id": "Asia/Tokyo"
}, {
  "kind": "airport",
  "id": "KMJ",
  "mac_id": null,
  "name": "Kumamoto",
  "country_code": "JP",
  "longitude": "130.8525",
  "latitude": "32.831944444444446",
  "timezone_id": "Asia/Tokyo"
}, {
  "kind": "airport",
  "id": "NTQ",
  "mac_id": null,
  "name": "Wajima",
  "country_code": "JP",
  "longitude": "136.96194444444444",
  "latitude": "37.293055555555554",
  "timezone_id": "Asia/Tokyo"
}, {
  "kind": "airport",
  "id": "SHM",
  "mac_id": null,
  "name": "Shirahama",
  "country_code": "JP",
  "longitude": "135.35805555555555",
  "latitude": "33.661388888888887",
  "timezone_id": "Asia/Tokyo"
}, {
  "kind": "airport",
  "id": "TTJ",
  "mac_id": null,
  "name": "Tottori",
  "country_code": "JP",
  "longitude": "134.16666666666666",
  "latitude": "35.53",
  "timezone_id": "Asia/Tokyo"
}, {
  "kind": "airport",
  "id": "TSJ",
  "mac_id": null,
  "name": "Tsushima",
  "country_code": "JP",
  "longitude": "129.33055555555555",
  "latitude": "34.285",
  "timezone_id": "Asia/Tokyo"
}, {
  "kind": "airport",
  "id": "NRT",
  "mac_id": "city/TYO",
  "name": "Tokyo",
  "country_code": "JP",
  "longitude": "140.39111111111112",
  "latitude": "35.763888888888886",
  "timezone_id": "Asia/Tokyo"
}, {
  "kind": "airport",
  "id": "GAJ",
  "mac_id": null,
  "name": "Yamagata",
  "country_code": "JP",
  "longitude": "140.3713888888889",
  "latitude": "38.411944444444444",
  "timezone_id": "Asia/Tokyo"
}, {
  "kind": "airport",
  "id": "WKJ",
  "mac_id": null,
  "name": "Wakkanai",
  "country_code": "JP",
  "longitude": "141.79638888888888",
  "latitude": "45.4",
  "timezone_id": "Asia/Tokyo"
}, {
  "kind": "airport",
  "id": "HKD",
  "mac_id": null,
  "name": "Hakodate",
  "country_code": "JP",
  "longitude": "140.81972222222223",
  "latitude": "41.768888888888888",
  "timezone_id": "Asia/Tokyo"
}, {
  "kind": "airport",
  "id": "HIJ",
  "mac_id": null,
  "name": "Hiroshima",
  "country_code": "JP",
  "longitude": "132.92472222222221",
  "latitude": "34.432777777777773",
  "timezone_id": "Asia/Tokyo"
}, {
  "kind": "airport",
  "id": "FSZ",
  "mac_id": null,
  "name": "Shizuoka",
  "country_code": "JP",
  "longitude": "138.18944444444446",
  "latitude": "34.796111111111109",
  "timezone_id": "Asia/Tokyo"
}, {
  "kind": "airport",
  "id": "SHB",
  "mac_id": null,
  "name": "Nakashibetsu",
  "country_code": "JP",
  "longitude": "144.96666666666667",
  "latitude": "43.56666666666667",
  "timezone_id": "Asia/Tokyo"
}, {
  "kind": "airport",
  "id": "YGJ",
  "mac_id": null,
  "name": "Yonago",
  "country_code": "JP",
  "longitude": "133.23638888888888",
  "latitude": "35.492222222222225",
  "timezone_id": "Asia/Tokyo"
}, {
  "kind": "airport",
  "id": "HSG",
  "mac_id": null,
  "name": "Saga",
  "country_code": "JP",
  "longitude": "130.30222222222224",
  "latitude": "33.149722222222223",
  "timezone_id": "Asia/Tokyo"
}, {
  "kind": "airport",
  "id": "SDJ",
  "mac_id": null,
  "name": "Sendai",
  "country_code": "JP",
  "longitude": "140.91694444444443",
  "latitude": "38.139722222222218",
  "timezone_id": "Asia/Tokyo"
}, {
  "kind": "airport",
  "id": "OKJ",
  "mac_id": null,
  "name": "Okayama",
  "country_code": "JP",
  "longitude": "133.85305555555556",
  "latitude": "34.76",
  "timezone_id": "Asia/Tokyo"
}, {
  "kind": "airport",
  "id": "IWJ",
  "mac_id": null,
  "name": "Masuda",
  "country_code": "JP",
  "longitude": "131.79277777777779",
  "latitude": "34.67305555555555",
  "timezone_id": "Asia/Tokyo"
}, {
  "kind": "airport",
  "id": "KIX",
  "mac_id": "city/OSA",
  "name": "Osaka",
  "country_code": "JP",
  "longitude": "135.24694444444444",
  "latitude": "34.423888888888889",
  "timezone_id": "Asia/Tokyo"
}, {
  "kind": "airport",
  "id": "AXT",
  "mac_id": null,
  "name": "Akita",
  "country_code": "JP",
  "longitude": "140.2186111111111",
  "latitude": "39.615555555555559",
  "timezone_id": "Asia/Tokyo"
}, {
  "kind": "airport",
  "id": "AKJ",
  "mac_id": null,
  "name": "Asahikawa",
  "country_code": "JP",
  "longitude": "142.45",
  "latitude": "43.666666666666664",
  "timezone_id": "Asia/Tokyo"
}, {
  "kind": "airport",
  "id": "NGO",
  "mac_id": null,
  "name": "Nagoya",
  "country_code": "JP",
  "longitude": "136.8052777777778",
  "latitude": "34.858333333333334",
  "timezone_id": "Asia/Tokyo"
}, {
  "kind": "airport",
  "id": "KOJ",
  "mac_id": null,
  "name": "Kagoshima",
  "country_code": "JP",
  "longitude": "130.72027777777777",
  "latitude": "31.801944444444445",
  "timezone_id": "Asia/Tokyo"
}, {
  "kind": "airport",
  "id": "UEO",
  "mac_id": null,
  "name": "Kume-jima",
  "country_code": "JP",
  "longitude": "126.71388888888889",
  "latitude": "26.363611111111112",
  "timezone_id": "Asia/Tokyo"
}, {
  "kind": "airport",
  "id": "FUK",
  "mac_id": null,
  "name": "Fukuoka",
  "country_code": "JP",
  "longitude": "130.45333333333332",
  "latitude": "33.582222222222228",
  "timezone_id": "Asia/Tokyo"
}, {
  "kind": "airport",
  "id": "HAC",
  "mac_id": null,
  "name": "Hachijojima",
  "country_code": "JP",
  "longitude": "139.79055555555556",
  "latitude": "33.113333333333337",
  "timezone_id": "Asia/Tokyo"
}, {
  "kind": "airport",
  "id": "TAK",
  "mac_id": null,
  "name": "Takamatsu",
  "country_code": "JP",
  "longitude": "134.01555555555555",
  "latitude": "34.214166666666671",
  "timezone_id": "Asia/Tokyo"
}, {
  "kind": "airport",
  "id": "AOJ",
  "mac_id": null,
  "name": "Aomori",
  "country_code": "JP",
  "longitude": "140.7",
  "latitude": "40.733333333333334",
  "timezone_id": "Asia/Tokyo"
}, {
  "kind": "airport",
  "id": "KUH",
  "mac_id": null,
  "name": "Kushiro",
  "country_code": "JP",
  "longitude": "144.19305555555556",
  "latitude": "43.040833333333332",
  "timezone_id": "Asia/Tokyo"
}, {
  "kind": "airport",
  "id": "HNA",
  "mac_id": null,
  "name": "Hanamaki",
  "country_code": "JP",
  "longitude": "141.13527777777776",
  "latitude": "39.42861111111111",
  "timezone_id": "Asia/Tokyo"
}, {
  "kind": "airport",
  "id": "KIJ",
  "mac_id": null,
  "name": "Niigata",
  "country_code": "JP",
  "longitude": "139.1225",
  "latitude": "37.953333333333333",
  "timezone_id": "Asia/Tokyo"
}, {
  "kind": "airport",
  "id": "MMB",
  "mac_id": null,
  "name": "Memanbetsu",
  "country_code": "JP",
  "longitude": "144.16722222222222",
  "latitude": "43.9",
  "timezone_id": "Asia/Tokyo"
}, {
  "kind": "airport",
  "id": "NGS",
  "mac_id": null,
  "name": "Nagasaki",
  "country_code": "JP",
  "longitude": "129.91361111111112",
  "latitude": "32.916944444444439",
  "timezone_id": "Asia/Tokyo"
}, {
  "kind": "airport",
  "id": "FUJ",
  "mac_id": null,
  "name": "Fukue",
  "country_code": "JP",
  "longitude": "128.83277777777778",
  "latitude": "32.666388888888889",
  "timezone_id": "Asia/Tokyo"
}, {
  "kind": "airport",
  "id": "JUB",
  "mac_id": null,
  "name": "Juba",
  "country_code": "SS",
  "longitude": "31.603888888888889",
  "latitude": "4.8705555555555557",
  "timezone_id": "Africa/Juba"
}, {
  "kind": "airport",
  "id": "LFW",
  "mac_id": null,
  "name": "Lome",
  "country_code": "TG",
  "longitude": "1.2541666666666667",
  "latitude": "6.1625000000000005",
  "timezone_id": "Africa/Lome"
}, {
  "kind": "airport",
  "id": "PWQ",
  "mac_id": null,
  "name": "Pavlodar",
  "country_code": "KZ",
  "longitude": "77.073888888888888",
  "latitude": "52.194999999999993",
  "timezone_id": "Asia/Almaty"
}, {
  "kind": "airport",
  "id": "KGF",
  "mac_id": null,
  "name": "Karaganda",
  "country_code": "KZ",
  "longitude": "73.334166666666661",
  "latitude": "49.670555555555552",
  "timezone_id": "Asia/Almaty"
}, {
  "kind": "airport",
  "id": "NQZ",
  "mac_id": null,
  "name": "Nursultan",
  "country_code": "KZ",
  "longitude": "71.466944",
  "latitude": "51.021944",
  "timezone_id": "Asia/Almaty"
}, {
  "kind": "airport",
  "id": "ALA",
  "mac_id": null,
  "name": "Almaty",
  "country_code": "KZ",
  "longitude": "77.043888888888887",
  "latitude": "43.355555555555554",
  "timezone_id": "Asia/Almaty"
}, {
  "kind": "airport",
  "id": "CIT",
  "mac_id": null,
  "name": "Shymkent",
  "country_code": "KZ",
  "longitude": "69.491666666666674",
  "latitude": "42.365555555555559",
  "timezone_id": "Asia/Almaty"
}, {
  "kind": "airport",
  "id": "TSE",
  "mac_id": null,
  "name": "Astana",
  "country_code": "KZ",
  "longitude": "71.466111111111118",
  "latitude": "51.0225",
  "timezone_id": "Asia/Almaty"
}, {
  "kind": "airport",
  "id": "UKK",
  "mac_id": null,
  "name": "Ust-Kamenogorsk",
  "country_code": "KZ",
  "longitude": "82.494166666666672",
  "latitude": "50.036111111111111",
  "timezone_id": "Asia/Almaty"
}, {
  "kind": "airport",
  "id": "DYR",
  "mac_id": null,
  "name": "Anadyr",
  "country_code": "RU",
  "longitude": "177.75",
  "latitude": "64.733333333333334",
  "timezone_id": "Asia/Anadyr"
}, {
  "kind": "airport",
  "id": "AKX",
  "mac_id": null,
  "name": "Aktobe",
  "country_code": "KZ",
  "longitude": "57.216666666666669",
  "latitude": "50.25",
  "timezone_id": "Asia/Aqtobe"
}, {
  "kind": "airport",
  "id": "BEY",
  "mac_id": null,
  "name": "Beirut",
  "country_code": "LB",
  "longitude": "35.488333333333337",
  "latitude": "33.82083333333334",
  "timezone_id": "Asia/Beirut"
}, {
  "kind": "airport",
  "id": "BWN",
  "mac_id": null,
  "name": "Bandar Seri Begawan",
  "country_code": "BN",
  "longitude": "114.92777777777778",
  "latitude": "4.9250000000000007",
  "timezone_id": "Asia/Brunei"
}, {
  "kind": "airport",
  "id": "KWI",
  "mac_id": null,
  "name": "Kuwait",
  "country_code": "KW",
  "longitude": "47.979722222222222",
  "latitude": "29.226666666666667",
  "timezone_id": "Asia/Kuwait"
}, {
  "kind": "airport",
  "id": "WNP",
  "mac_id": null,
  "name": "Naga",
  "country_code": "PH",
  "longitude": "123.27",
  "latitude": "13.587222222222223",
  "timezone_id": "Asia/Manila"
}, {
  "kind": "airport",
  "id": "CEB",
  "mac_id": null,
  "name": "Cebu",
  "country_code": "PH",
  "longitude": "123.97861111111111",
  "latitude": "10.315277777777778",
  "timezone_id": "Asia/Manila"
}, {
  "kind": "airport",
  "id": "RXS",
  "mac_id": null,
  "name": "Roxas",
  "country_code": "PH",
  "longitude": "122.75111111111111",
  "latitude": "11.6",
  "timezone_id": "Asia/Manila"
}, {
  "kind": "airport",
  "id": "TAG",
  "mac_id": null,
  "name": "Tagbilaran",
  "country_code": "PH",
  "longitude": "123.85416666666666",
  "latitude": "9.6641666666666666",
  "timezone_id": "Asia/Manila"
}, {
  "kind": "airport",
  "id": "MBT",
  "mac_id": null,
  "name": "Masbate",
  "country_code": "PH",
  "longitude": "123.62916666666666",
  "latitude": "12.369444444444445",
  "timezone_id": "Asia/Manila"
}, {
  "kind": "airport",
  "id": "SUG",
  "mac_id": null,
  "name": "Surigao",
  "country_code": "PH",
  "longitude": "125.47916666666667",
  "latitude": "9.7588888888888885",
  "timezone_id": "Asia/Manila"
}, {
  "kind": "airport",
  "id": "DRP",
  "mac_id": null,
  "name": "Legaspi",
  "country_code": "PH",
  "longitude": "123.677222",
  "latitude": "13.112222",
  "timezone_id": "Asia/Manila"
}, {
  "kind": "airport",
  "id": "CYP",
  "mac_id": null,
  "name": "Calbayog",
  "country_code": "PH",
  "longitude": "124.54305555555555",
  "latitude": "12.075833333333334",
  "timezone_id": "Asia/Manila"
}, {
  "kind": "airport",
  "id": "USU",
  "mac_id": null,
  "name": "Busuanga",
  "country_code": "PH",
  "longitude": "120.1",
  "latitude": "12.121388888888889",
  "timezone_id": "Asia/Manila"
}, {
  "kind": "airport",
  "id": "BXU",
  "mac_id": null,
  "name": "Butuan",
  "country_code": "PH",
  "longitude": "125.48388888888888",
  "latitude": "8.9513888888888875",
  "timezone_id": "Asia/Manila"
}, {
  "kind": "airport",
  "id": "DPL",
  "mac_id": null,
  "name": "Dipolog",
  "country_code": "PH",
  "longitude": "123.35",
  "latitude": "8.6",
  "timezone_id": "Asia/Manila"
}, {
  "kind": "airport",
  "id": "CBO",
  "mac_id": null,
  "name": "Cotabato",
  "country_code": "PH",
  "longitude": "124.215",
  "latitude": "7.1630555555555562",
  "timezone_id": "Asia/Manila"
}, {
  "kind": "airport",
  "id": "ZAM",
  "mac_id": null,
  "name": "Zamboanga",
  "country_code": "PH",
  "longitude": "122.05888888888889",
  "latitude": "6.923055555555556",
  "timezone_id": "Asia/Manila"
}, {
  "kind": "airport",
  "id": "PPS",
  "mac_id": null,
  "name": "Puerto Princesa",
  "country_code": "PH",
  "longitude": "118.75861111111111",
  "latitude": "9.742222222222221",
  "timezone_id": "Asia/Manila"
}, {
  "kind": "airport",
  "id": "DGT",
  "mac_id": null,
  "name": "Dumaguete",
  "country_code": "PH",
  "longitude": "123.29861111111111",
  "latitude": "9.3341666666666665",
  "timezone_id": "Asia/Manila"
}, {
  "kind": "airport",
  "id": "KLO",
  "mac_id": null,
  "name": "Kalibo",
  "country_code": "PH",
  "longitude": "122.37722222222222",
  "latitude": "11.682777777777778",
  "timezone_id": "Asia/Manila"
}, {
  "kind": "airport",
  "id": "MNL",
  "mac_id": null,
  "name": "Manila",
  "country_code": "PH",
  "longitude": "121.01944444444445",
  "latitude": "14.508611111111112",
  "timezone_id": "Asia/Manila"
}, {
  "kind": "airport",
  "id": "BSO",
  "mac_id": null,
  "name": "Basco",
  "country_code": "PH",
  "longitude": "121.97777777777777",
  "latitude": "20.453055555555554",
  "timezone_id": "Asia/Manila"
}, {
  "kind": "airport",
  "id": "BCD",
  "mac_id": null,
  "name": "Bacolod",
  "country_code": "PH",
  "longitude": "123.01472222222222",
  "latitude": "10.77638888888889",
  "timezone_id": "Asia/Manila"
}, {
  "kind": "airport",
  "id": "DVO",
  "mac_id": null,
  "name": "Davao",
  "country_code": "PH",
  "longitude": "125.64583333333334",
  "latitude": "7.1255555555555548",
  "timezone_id": "Asia/Manila"
}, {
  "kind": "airport",
  "id": "CRM",
  "mac_id": null,
  "name": "Catarman",
  "country_code": "PH",
  "longitude": "124.6363888888889",
  "latitude": "12.505",
  "timezone_id": "Asia/Manila"
}, {
  "kind": "airport",
  "id": "TUG",
  "mac_id": null,
  "name": "Tuguegarao",
  "country_code": "PH",
  "longitude": "121.73166666666667",
  "latitude": "17.641111111111112",
  "timezone_id": "Asia/Manila"
}, {
  "kind": "airport",
  "id": "CRK",
  "mac_id": null,
  "name": "Angeles/Mabalacat",
  "country_code": "PH",
  "longitude": "120.55972222222222",
  "latitude": "15.185833333333333",
  "timezone_id": "Asia/Manila"
}, {
  "kind": "airport",
  "id": "OZC",
  "mac_id": null,
  "name": "Ozamis",
  "country_code": "PH",
  "longitude": "123.84138888888889",
  "latitude": "8.1805555555555554",
  "timezone_id": "Asia/Manila"
}, {
  "kind": "airport",
  "id": "LAO",
  "mac_id": null,
  "name": "Laoag",
  "country_code": "PH",
  "longitude": "120.53027777777778",
  "latitude": "18.183611111111112",
  "timezone_id": "Asia/Manila"
}, {
  "kind": "airport",
  "id": "TAC",
  "mac_id": null,
  "name": "Tacloban",
  "country_code": "PH",
  "longitude": "125.01944444444445",
  "latitude": "11.234444444444444",
  "timezone_id": "Asia/Manila"
}, {
  "kind": "airport",
  "id": "LGP",
  "mac_id": null,
  "name": "Legaspi",
  "country_code": "PH",
  "longitude": "123.73027777777779",
  "latitude": "13.156944444444445",
  "timezone_id": "Asia/Manila"
}, {
  "kind": "airport",
  "id": "CGY",
  "mac_id": null,
  "name": "Cagayan de Oro",
  "country_code": "PH",
  "longitude": "124.6111111111111",
  "latitude": "8.4155555555555566",
  "timezone_id": "Asia/Manila"
}, {
  "kind": "airport",
  "id": "MPH",
  "mac_id": null,
  "name": "Caticlan",
  "country_code": "PH",
  "longitude": "121.95222222222222",
  "latitude": "11.925833333333333",
  "timezone_id": "Asia/Manila"
}, {
  "kind": "airport",
  "id": "GES",
  "mac_id": null,
  "name": "General Santos",
  "country_code": "PH",
  "longitude": "125.23472222222222",
  "latitude": "6.1094444444444438",
  "timezone_id": "Asia/Manila"
}, {
  "kind": "airport",
  "id": "ILO",
  "mac_id": null,
  "name": "Iloilo",
  "country_code": "PH",
  "longitude": "122.49361111111111",
  "latitude": "10.831388888888888",
  "timezone_id": "Asia/Manila"
}, {
  "kind": "airport",
  "id": "KHS",
  "mac_id": null,
  "name": "Khasab",
  "country_code": "OM",
  "longitude": "56.233333333333334",
  "latitude": "26.183333333333334",
  "timezone_id": "Asia/Muscat"
}, {
  "kind": "airport",
  "id": "SLL",
  "mac_id": null,
  "name": "Salalah",
  "country_code": "OM",
  "longitude": "54.101666666666667",
  "latitude": "17.03638888888889",
  "timezone_id": "Asia/Muscat"
}, {
  "kind": "airport",
  "id": "MCT",
  "mac_id": null,
  "name": "Muscat",
  "country_code": "OM",
  "longitude": "58.279166666666669",
  "latitude": "23.591666666666665",
  "timezone_id": "Asia/Muscat"
}, {
  "kind": "airport",
  "id": "HOF",
  "mac_id": null,
  "name": "Hofuf",
  "country_code": "SA",
  "longitude": "49.486111111111114",
  "latitude": "25.286111111111111",
  "timezone_id": "Asia/Riyadh"
}, {
  "kind": "airport",
  "id": "TIF",
  "mac_id": null,
  "name": "Taif",
  "country_code": "SA",
  "longitude": "40.544444444444444",
  "latitude": "21.483333333333334",
  "timezone_id": "Asia/Riyadh"
}, {
  "kind": "airport",
  "id": "AHB",
  "mac_id": null,
  "name": "Abha",
  "country_code": "SA",
  "longitude": "42.65",
  "latitude": "18.233333333333334",
  "timezone_id": "Asia/Riyadh"
}, {
  "kind": "airport",
  "id": "EAM",
  "mac_id": null,
  "name": "Nejran",
  "country_code": "SA",
  "longitude": "44.419166666666662",
  "latitude": "17.611388888888889",
  "timezone_id": "Asia/Riyadh"
}, {
  "kind": "airport",
  "id": "YNB",
  "mac_id": null,
  "name": "Yanbu al Bahr",
  "country_code": "SA",
  "longitude": "38.06666666666667",
  "latitude": "24.116666666666667",
  "timezone_id": "Asia/Riyadh"
}, {
  "kind": "airport",
  "id": "TUI",
  "mac_id": null,
  "name": "Turaif",
  "country_code": "SA",
  "longitude": "38.733611111111109",
  "latitude": "31.688611111111111",
  "timezone_id": "Asia/Riyadh"
}, {
  "kind": "airport",
  "id": "ABT",
  "mac_id": null,
  "name": "Al Baha",
  "country_code": "SA",
  "longitude": "41.634166666666665",
  "latitude": "20.296111111111113",
  "timezone_id": "Asia/Riyadh"
}, {
  "kind": "airport",
  "id": "BHH",
  "mac_id": null,
  "name": "Bisha",
  "country_code": "SA",
  "longitude": "42.625",
  "latitude": "19.986111111111111",
  "timezone_id": "Asia/Riyadh"
}, {
  "kind": "airport",
  "id": "EJH",
  "mac_id": null,
  "name": "Wedjh",
  "country_code": "SA",
  "longitude": "36.483333333333334",
  "latitude": "26.2",
  "timezone_id": "Asia/Riyadh"
}, {
  "kind": "airport",
  "id": "SHW",
  "mac_id": null,
  "name": "Sharurah",
  "country_code": "SA",
  "longitude": "47.121388888888887",
  "latitude": "17.466944444444444",
  "timezone_id": "Asia/Riyadh"
}, {
  "kind": "airport",
  "id": "RAH",
  "mac_id": null,
  "name": "Rafha",
  "country_code": "SA",
  "longitude": "43.481111111111112",
  "latitude": "29.630277777777778",
  "timezone_id": "Asia/Riyadh"
}, {
  "kind": "airport",
  "id": "GIZ",
  "mac_id": null,
  "name": "Gizan",
  "country_code": "SA",
  "longitude": "42.583333333333336",
  "latitude": "16.866666666666667",
  "timezone_id": "Asia/Riyadh"
}, {
  "kind": "airport",
  "id": "ELQ",
  "mac_id": null,
  "name": "Gassim",
  "country_code": "SA",
  "longitude": "43.774166666666666",
  "latitude": "26.302777777777777",
  "timezone_id": "Asia/Riyadh"
}, {
  "kind": "airport",
  "id": "RUH",
  "mac_id": null,
  "name": "Riyadh",
  "country_code": "SA",
  "longitude": "46.708055555555561",
  "latitude": "24.962777777777777",
  "timezone_id": "Asia/Riyadh"
}, {
  "kind": "airport",
  "id": "AJF",
  "mac_id": null,
  "name": "Jouf",
  "country_code": "SA",
  "longitude": "40.099722222222226",
  "latitude": "29.785277777777779",
  "timezone_id": "Asia/Riyadh"
}, {
  "kind": "airport",
  "id": "AQI",
  "mac_id": null,
  "name": "Qaisumah",
  "country_code": "SA",
  "longitude": "46.130555555555553",
  "latitude": "28.328055555555554",
  "timezone_id": "Asia/Riyadh"
}, {
  "kind": "airport",
  "id": "DMM",
  "mac_id": null,
  "name": "Dammam",
  "country_code": "SA",
  "longitude": "49.8",
  "latitude": "26.466666666666665",
  "timezone_id": "Asia/Riyadh"
}, {
  "kind": "airport",
  "id": "RAE",
  "mac_id": null,
  "name": "Arar",
  "country_code": "SA",
  "longitude": "41.138333333333335",
  "latitude": "30.906666666666666",
  "timezone_id": "Asia/Riyadh"
}, {
  "kind": "airport",
  "id": "MED",
  "mac_id": null,
  "name": "Madinah",
  "country_code": "SA",
  "longitude": "39.705833333333338",
  "latitude": "24.550277777777779",
  "timezone_id": "Asia/Riyadh"
}, {
  "kind": "airport",
  "id": "URY",
  "mac_id": null,
  "name": "Gurayat",
  "country_code": "SA",
  "longitude": "37.278888888888886",
  "latitude": "31.411666666666665",
  "timezone_id": "Asia/Riyadh"
}, {
  "kind": "airport",
  "id": "JED",
  "mac_id": null,
  "name": "Jeddah",
  "country_code": "SA",
  "longitude": "39.155555555555551",
  "latitude": "21.681111111111111",
  "timezone_id": "Asia/Riyadh"
}, {
  "kind": "airport",
  "id": "TUU",
  "mac_id": null,
  "name": "Tabuk",
  "country_code": "SA",
  "longitude": "36.621388888888887",
  "latitude": "28.373055555555556",
  "timezone_id": "Asia/Riyadh"
}, {
  "kind": "airport",
  "id": "HAS",
  "mac_id": null,
  "name": "Hail",
  "country_code": "SA",
  "longitude": "41.686944444444443",
  "latitude": "27.439444444444444",
  "timezone_id": "Asia/Riyadh"
}, {
  "kind": "airport",
  "id": "MZG",
  "mac_id": null,
  "name": "Magong",
  "country_code": "TW",
  "longitude": "119.61861111111111",
  "latitude": "23.569166666666668",
  "timezone_id": "Asia/Taipei"
}, {
  "kind": "airport",
  "id": "RMQ",
  "mac_id": null,
  "name": "Taichung",
  "country_code": "TW",
  "longitude": "120.62055555555555",
  "latitude": "24.264722222222222",
  "timezone_id": "Asia/Taipei"
}, {
  "kind": "airport",
  "id": "HUN",
  "mac_id": null,
  "name": "Hualien",
  "country_code": "TW",
  "longitude": "121.6125",
  "latitude": "24.022222222222222",
  "timezone_id": "Asia/Taipei"
}, {
  "kind": "airport",
  "id": "TSA",
  "mac_id": "city/TPE",
  "name": "Taipei",
  "country_code": "TW",
  "longitude": "121.55166666666666",
  "latitude": "25.069444444444443",
  "timezone_id": "Asia/Taipei"
}, {
  "kind": "airport",
  "id": "TNN",
  "mac_id": null,
  "name": "Tainan",
  "country_code": "TW",
  "longitude": "120.20583333333333",
  "latitude": "22.950277777777778",
  "timezone_id": "Asia/Taipei"
}, {
  "kind": "airport",
  "id": "KHH",
  "mac_id": null,
  "name": "Kaohsiung",
  "country_code": "TW",
  "longitude": "120.35",
  "latitude": "22.577222222222222",
  "timezone_id": "Asia/Taipei"
}, {
  "kind": "airport",
  "id": "TTT",
  "mac_id": null,
  "name": "Taitung",
  "country_code": "TW",
  "longitude": "121.1",
  "latitude": "22.75",
  "timezone_id": "Asia/Taipei"
}, {
  "kind": "airport",
  "id": "KNH",
  "mac_id": null,
  "name": "Kinmen",
  "country_code": "TW",
  "longitude": "118.34444444444443",
  "latitude": "24.420555555555556",
  "timezone_id": "Asia/Taipei"
}, {
  "kind": "airport",
  "id": "TPE",
  "mac_id": "city/TPE",
  "name": "Taipei",
  "country_code": "TW",
  "longitude": "121.22388888888889",
  "latitude": "25.076388888888889",
  "timezone_id": "Asia/Taipei"
}, {
  "kind": "airport",
  "id": "IFN",
  "mac_id": null,
  "name": "Esfahan",
  "country_code": "IR",
  "longitude": "51.861388888888889",
  "latitude": "32.750833333333333",
  "timezone_id": "Asia/Tehran"
}, {
  "kind": "airport",
  "id": "TBZ",
  "mac_id": null,
  "name": "Tabriz",
  "country_code": "IR",
  "longitude": "46.235",
  "latitude": "38.13388888888889",
  "timezone_id": "Asia/Tehran"
}, {
  "kind": "airport",
  "id": "SYZ",
  "mac_id": null,
  "name": "Shiraz",
  "country_code": "IR",
  "longitude": "52.589722222222221",
  "latitude": "29.539166666666667",
  "timezone_id": "Asia/Tehran"
}, {
  "kind": "airport",
  "id": "DEF",
  "mac_id": null,
  "name": "Dezful",
  "country_code": "IR",
  "longitude": "48.383333333333333",
  "latitude": "32.43333333333333",
  "timezone_id": "Asia/Tehran"
}, {
  "kind": "airport",
  "id": "KIH",
  "mac_id": null,
  "name": "Kish Island",
  "country_code": "IR",
  "longitude": "53.971666666666671",
  "latitude": "26.531666666666666",
  "timezone_id": "Asia/Tehran"
}, {
  "kind": "airport",
  "id": "IKA",
  "mac_id": "city/THR",
  "name": "Tehran",
  "country_code": "IR",
  "longitude": "51.150833333333331",
  "latitude": "35.409722222222221",
  "timezone_id": "Asia/Tehran"
}, {
  "kind": "airport",
  "id": "MHD",
  "mac_id": null,
  "name": "Mashhad",
  "country_code": "IR",
  "longitude": "59.640833333333333",
  "latitude": "36.235277777777782",
  "timezone_id": "Asia/Tehran"
}, {
  "kind": "airport",
  "id": "KSH",
  "mac_id": null,
  "name": "Kermanshah",
  "country_code": "IR",
  "longitude": "47.15",
  "latitude": "34.35",
  "timezone_id": "Asia/Tehran"
}, {
  "kind": "airport",
  "id": "THR",
  "mac_id": "city/THR",
  "name": "Tehran",
  "country_code": "IR",
  "longitude": "51.313333333333333",
  "latitude": "35.689166666666665",
  "timezone_id": "Asia/Tehran"
}, {
  "kind": "airport",
  "id": "URC",
  "mac_id": null,
  "name": "Urumqi",
  "country_code": "CN",
  "longitude": "87.474166666666662",
  "latitude": "43.907222222222224",
  "timezone_id": "Asia/Urumqi"
}, {
  "kind": "airport",
  "id": "KHG",
  "mac_id": null,
  "name": "Kashi",
  "country_code": "CN",
  "longitude": "76.019722222222228",
  "latitude": "39.543055555555554",
  "timezone_id": "Asia/Urumqi"
}, {
  "kind": "airport",
  "id": "DNH",
  "mac_id": null,
  "name": "Dunhuang",
  "country_code": "CN",
  "longitude": "94.80916666666667",
  "latitude": "40.161111111111111",
  "timezone_id": "Asia/Urumqi"
}, {
  "kind": "airport",
  "id": "ZHA",
  "mac_id": null,
  "name": "Zhanjiang",
  "country_code": "CN",
  "longitude": "110.35833333333333",
  "latitude": "21.214444444444442",
  "timezone_id": "Asia/Urumqi"
}, {
  "kind": "airport",
  "id": "HMI",
  "mac_id": null,
  "name": "Hami",
  "country_code": "CN",
  "longitude": "93.669166666666669",
  "latitude": "42.841388888888893",
  "timezone_id": "Asia/Urumqi"
}, {
  "kind": "airport",
  "id": "YUS",
  "mac_id": null,
  "name": "Yushu",
  "country_code": "CN",
  "longitude": "97.038888888888891",
  "latitude": "32.839166666666671",
  "timezone_id": "Asia/Urumqi"
}, {
  "kind": "airport",
  "id": "YIN",
  "mac_id": null,
  "name": "Yining",
  "country_code": "CN",
  "longitude": "81.330277777777781",
  "latitude": "43.955833333333338",
  "timezone_id": "Asia/Urumqi"
}, {
  "kind": "airport",
  "id": "AAT",
  "mac_id": null,
  "name": "Altay",
  "country_code": "CN",
  "longitude": "88.124722222222218",
  "latitude": "47.838333333333338",
  "timezone_id": "Asia/Urumqi"
}, {
  "kind": "airport",
  "id": "LXA",
  "mac_id": null,
  "name": "Lhasa/Lasa",
  "country_code": "CN",
  "longitude": "90.911666666666676",
  "latitude": "29.297777777777778",
  "timezone_id": "Asia/Urumqi"
}, {
  "kind": "airport",
  "id": "KRL",
  "mac_id": null,
  "name": "Korla",
  "country_code": "CN",
  "longitude": "86.15",
  "latitude": "41.733333333333334",
  "timezone_id": "Asia/Urumqi"
}, {
  "kind": "airport",
  "id": "KCA",
  "mac_id": null,
  "name": "Kuqa",
  "country_code": "CN",
  "longitude": "82.986944444444447",
  "latitude": "41.718055555555559",
  "timezone_id": "Asia/Urumqi"
}, {
  "kind": "airport",
  "id": "HTN",
  "mac_id": null,
  "name": "Hotan",
  "country_code": "CN",
  "longitude": "79.865",
  "latitude": "37.038611111111109",
  "timezone_id": "Asia/Urumqi"
}, {
  "kind": "airport",
  "id": "AKU",
  "mac_id": null,
  "name": "Aksu",
  "country_code": "CN",
  "longitude": "80.291666666666671",
  "latitude": "41.2625",
  "timezone_id": "Asia/Urumqi"
}, {
  "kind": "airport",
  "id": "NYT",
  "mac_id": null,
  "name": "Nay Pyi Taw",
  "country_code": "MM",
  "longitude": "96.201111111111118",
  "latitude": "19.62361111111111",
  "timezone_id": "Asia/Yangon"
}, {
  "kind": "airport",
  "id": "NYU",
  "mac_id": null,
  "name": "Bagan/Nyaung-u",
  "country_code": "MM",
  "longitude": "94.93472222222222",
  "latitude": "21.18138888888889",
  "timezone_id": "Asia/Yangon"
}, {
  "kind": "airport",
  "id": "HEH",
  "mac_id": null,
  "name": "Heho",
  "country_code": "MM",
  "longitude": "96.794444444444437",
  "latitude": "20.74388888888889",
  "timezone_id": "Asia/Yangon"
}, {
  "kind": "airport",
  "id": "MDL",
  "mac_id": null,
  "name": "Mandalay",
  "country_code": "MM",
  "longitude": "96.091388888888886",
  "latitude": "21.939166666666665",
  "timezone_id": "Asia/Yangon"
}, {
  "kind": "airport",
  "id": "RGN",
  "mac_id": null,
  "name": "Yangon",
  "country_code": "MM",
  "longitude": "96.13333333333334",
  "latitude": "16.90722222222222",
  "timezone_id": "Asia/Yangon"
}, {
  "kind": "airport",
  "id": "SNW",
  "mac_id": null,
  "name": "Thandwe",
  "country_code": "MM",
  "longitude": "94.3",
  "latitude": "18.461111111111112",
  "timezone_id": "Asia/Yangon"
}, {
  "kind": "airport",
  "id": "HRK",
  "mac_id": null,
  "name": "Kharkiv",
  "country_code": "UA",
  "longitude": "36.283333333333331",
  "latitude": "49.93333333333333",
  "timezone_id": "Europe/Kyiv"
}, {
  "kind": "airport",
  "id": "KBP",
  "mac_id": "city/IEV",
  "name": "Kiev",
  "country_code": "UA",
  "longitude": "30.916666666666668",
  "latitude": "50.35",
  "timezone_id": "Europe/Kyiv"
}, {
  "kind": "airport",
  "id": "DOK",
  "mac_id": null,
  "name": "Donetsk",
  "country_code": "UA",
  "longitude": "37.75",
  "latitude": "48.083333333333336",
  "timezone_id": "Europe/Kyiv"
}, {
  "kind": "airport",
  "id": "LWO",
  "mac_id": null,
  "name": "Lviv",
  "country_code": "UA",
  "longitude": "23.85",
  "latitude": "49.81666666666667",
  "timezone_id": "Europe/Kyiv"
}, {
  "kind": "airport",
  "id": "DNK",
  "mac_id": null,
  "name": "Dnipropetrovsk",
  "country_code": "UA",
  "longitude": "35.100555555555559",
  "latitude": "48.356944444444444",
  "timezone_id": "Europe/Kyiv"
}, {
  "kind": "airport",
  "id": "IFO",
  "mac_id": null,
  "name": "Ivano-FrankIvsk",
  "country_code": "UA",
  "longitude": "24.683333333333334",
  "latitude": "48.883333333333333",
  "timezone_id": "Europe/Kyiv"
}, {
  "kind": "airport",
  "id": "IEV",
  "mac_id": "city/IEV",
  "name": "Kiev",
  "country_code": "UA",
  "longitude": "30.443055555555556",
  "latitude": "50.411944444444444",
  "timezone_id": "Europe/Kyiv"
}, {
  "kind": "airport",
  "id": "VSG",
  "mac_id": null,
  "name": "Luhansk",
  "country_code": "UA",
  "longitude": "39.37222222222222",
  "latitude": "48.418333333333329",
  "timezone_id": "Europe/Kyiv"
}, {
  "kind": "airport",
  "id": "EVE",
  "mac_id": "city/EVE",
  "name": "Harstad-Narvik",
  "country_code": "NO",
  "longitude": "16.679722222222225",
  "latitude": "68.49666666666667",
  "timezone_id": "Europe/Oslo"
}, {
  "kind": "airport",
  "id": "BOO",
  "mac_id": null,
  "name": "Bodo",
  "country_code": "NO",
  "longitude": "14.372222222222224",
  "latitude": "67.269166666666663",
  "timezone_id": "Europe/Oslo"
}, {
  "kind": "airport",
  "id": "LKN",
  "mac_id": null,
  "name": "Leknes",
  "country_code": "NO",
  "longitude": "13.608888888888888",
  "latitude": "68.153611111111118",
  "timezone_id": "Europe/Oslo"
}, {
  "kind": "airport",
  "id": "SKE",
  "mac_id": null,
  "name": "Skien",
  "country_code": "NO",
  "longitude": "9.5625",
  "latitude": "59.182777777777773",
  "timezone_id": "Europe/Oslo"
}, {
  "kind": "airport",
  "id": "BJF",
  "mac_id": null,
  "name": "Batsfjord",
  "country_code": "NO",
  "longitude": "29.666666666666668",
  "latitude": "70.6",
  "timezone_id": "Europe/Oslo"
}, {
  "kind": "airport",
  "id": "KSU",
  "mac_id": null,
  "name": "Kristiansund",
  "country_code": "NO",
  "longitude": "7.8444444444444441",
  "latitude": "63.114722222222227",
  "timezone_id": "Europe/Oslo"
}, {
  "kind": "airport",
  "id": "MJF",
  "mac_id": null,
  "name": "Mosjoen",
  "country_code": "NO",
  "longitude": "13.215277777777777",
  "latitude": "65.783333333333331",
  "timezone_id": "Europe/Oslo"
}, {
  "kind": "airport",
  "id": "SOG",
  "mac_id": null,
  "name": "Sogndal",
  "country_code": "NO",
  "longitude": "7.1366666666666667",
  "latitude": "61.156111111111109",
  "timezone_id": "Europe/Oslo"
}, {
  "kind": "airport",
  "id": "SVG",
  "mac_id": null,
  "name": "Stavanger",
  "country_code": "NO",
  "longitude": "5.6377777777777771",
  "latitude": "58.876666666666665",
  "timezone_id": "Europe/Oslo"
}, {
  "kind": "airport",
  "id": "SDN",
  "mac_id": null,
  "name": "Sandane",
  "country_code": "NO",
  "longitude": "6.1077777777777778",
  "latitude": "61.829722222222223",
  "timezone_id": "Europe/Oslo"
}, {
  "kind": "airport",
  "id": "TRF",
  "mac_id": "city/OSL",
  "name": "Oslo",
  "country_code": "NO",
  "longitude": "10.266666666666667",
  "latitude": "59.18333333333333",
  "timezone_id": "Europe/Oslo"
}, {
  "kind": "airport",
  "id": "RET",
  "mac_id": null,
  "name": "Rost",
  "country_code": "NO",
  "longitude": "12.104722222222222",
  "latitude": "67.527222222222221",
  "timezone_id": "Europe/Oslo"
}, {
  "kind": "airport",
  "id": "SVJ",
  "mac_id": null,
  "name": "Svolvaer",
  "country_code": "NO",
  "longitude": "14.669166666666666",
  "latitude": "68.243333333333339",
  "timezone_id": "Europe/Oslo"
}, {
  "kind": "airport",
  "id": "SKN",
  "mac_id": null,
  "name": "Stokmarknes",
  "country_code": "NO",
  "longitude": "15.026111111111112",
  "latitude": "68.580833333333331",
  "timezone_id": "Europe/Oslo"
}, {
  "kind": "airport",
  "id": "HAA",
  "mac_id": null,
  "name": "Hasvik",
  "country_code": "NO",
  "longitude": "22.15",
  "latitude": "70.466666666666669",
  "timezone_id": "Europe/Oslo"
}, {
  "kind": "airport",
  "id": "FDE",
  "mac_id": null,
  "name": "Forde",
  "country_code": "NO",
  "longitude": "5.7636111111111115",
  "latitude": "61.391944444444441",
  "timezone_id": "Europe/Oslo"
}, {
  "kind": "airport",
  "id": "SOJ",
  "mac_id": null,
  "name": "Sorkjosen",
  "country_code": "NO",
  "longitude": "20.933333333333334",
  "latitude": "69.783333333333331",
  "timezone_id": "Europe/Oslo"
}, {
  "kind": "airport",
  "id": "OSY",
  "mac_id": null,
  "name": "Namsos",
  "country_code": "NO",
  "longitude": "11.6",
  "latitude": "64.466666666666669",
  "timezone_id": "Europe/Oslo"
}, {
  "kind": "airport",
  "id": "HFT",
  "mac_id": null,
  "name": "Hammerfest",
  "country_code": "NO",
  "longitude": "23.668333333333333",
  "latitude": "70.679444444444442",
  "timezone_id": "Europe/Oslo"
}, {
  "kind": "airport",
  "id": "RVK",
  "mac_id": null,
  "name": "Roervik",
  "country_code": "NO",
  "longitude": "11.144444444444444",
  "latitude": "64.838333333333324",
  "timezone_id": "Europe/Oslo"
}, {
  "kind": "airport",
  "id": "HVG",
  "mac_id": null,
  "name": "Honningsvag",
  "country_code": "NO",
  "longitude": "25.985277777777778",
  "latitude": "71.009444444444441",
  "timezone_id": "Europe/Oslo"
}, {
  "kind": "airport",
  "id": "SRP",
  "mac_id": null,
  "name": "Stord",
  "country_code": "NO",
  "longitude": "5.3408333333333333",
  "latitude": "59.791944444444439",
  "timezone_id": "Europe/Oslo"
}, {
  "kind": "airport",
  "id": "KRS",
  "mac_id": null,
  "name": "Kristiansand",
  "country_code": "NO",
  "longitude": "8.0852777777777778",
  "latitude": "58.204166666666673",
  "timezone_id": "Europe/Oslo"
}, {
  "kind": "airport",
  "id": "NVK",
  "mac_id": "city/EVE",
  "name": "Harstad-Narvik",
  "country_code": "NO",
  "longitude": "17.425",
  "latitude": "68.425000000000011",
  "timezone_id": "Europe/Oslo"
}, {
  "kind": "airport",
  "id": "MOL",
  "mac_id": null,
  "name": "Molde",
  "country_code": "NO",
  "longitude": "7.2625",
  "latitude": "62.744722222222222",
  "timezone_id": "Europe/Oslo"
}, {
  "kind": "airport",
  "id": "LKL",
  "mac_id": null,
  "name": "Lakselv",
  "country_code": "NO",
  "longitude": "24.973611111111108",
  "latitude": "70.067777777777778",
  "timezone_id": "Europe/Oslo"
}, {
  "kind": "airport",
  "id": "VDS",
  "mac_id": null,
  "name": "Vadso",
  "country_code": "NO",
  "longitude": "29.84472222222222",
  "latitude": "70.06527777777778",
  "timezone_id": "Europe/Oslo"
}, {
  "kind": "airport",
  "id": "AES",
  "mac_id": null,
  "name": "Aalesund",
  "country_code": "NO",
  "longitude": "6.1102777777777773",
  "latitude": "62.560277777777777",
  "timezone_id": "Europe/Oslo"
}, {
  "kind": "airport",
  "id": "TRD",
  "mac_id": null,
  "name": "Trondheim",
  "country_code": "NO",
  "longitude": "10.924166666666666",
  "latitude": "63.4575",
  "timezone_id": "Europe/Oslo"
}, {
  "kind": "airport",
  "id": "SSJ",
  "mac_id": null,
  "name": "Sandnessjoen",
  "country_code": "NO",
  "longitude": "12.468888888888889",
  "latitude": "65.956944444444446",
  "timezone_id": "Europe/Oslo"
}, {
  "kind": "airport",
  "id": "ANX",
  "mac_id": null,
  "name": "Andenes",
  "country_code": "NO",
  "longitude": "16.141666666666666",
  "latitude": "69.293055555555554",
  "timezone_id": "Europe/Oslo"
}, {
  "kind": "airport",
  "id": "ALF",
  "mac_id": null,
  "name": "Alta",
  "country_code": "NO",
  "longitude": "23.380555555555556",
  "latitude": "69.976111111111109",
  "timezone_id": "Europe/Oslo"
}, {
  "kind": "airport",
  "id": "HAU",
  "mac_id": null,
  "name": "Haugesund",
  "country_code": "NO",
  "longitude": "5.214722222222222",
  "latitude": "59.343888888888891",
  "timezone_id": "Europe/Oslo"
}, {
  "kind": "airport",
  "id": "TOS",
  "mac_id": null,
  "name": "Tromso",
  "country_code": "NO",
  "longitude": "18.921666666666667",
  "latitude": "69.68138888888889",
  "timezone_id": "Europe/Oslo"
}, {
  "kind": "airport",
  "id": "RYG",
  "mac_id": "city/OSL",
  "name": "Oslo",
  "country_code": "NO",
  "longitude": "10.785555555555556",
  "latitude": "59.378888888888888",
  "timezone_id": "Europe/Oslo"
}, {
  "kind": "airport",
  "id": "OLA",
  "mac_id": null,
  "name": "Orland",
  "country_code": "NO",
  "longitude": "9.60388888888889",
  "latitude": "63.698888888888888",
  "timezone_id": "Europe/Oslo"
}, {
  "kind": "airport",
  "id": "RRS",
  "mac_id": null,
  "name": "Roros",
  "country_code": "NO",
  "longitude": "11.345555555555556",
  "latitude": "62.579166666666673",
  "timezone_id": "Europe/Oslo"
}, {
  "kind": "airport",
  "id": "HOV",
  "mac_id": null,
  "name": "Orsta-Volda",
  "country_code": "NO",
  "longitude": "6.08",
  "latitude": "62.18",
  "timezone_id": "Europe/Oslo"
}, {
  "kind": "airport",
  "id": "KKN",
  "mac_id": null,
  "name": "Kirkenes",
  "country_code": "NO",
  "longitude": "29.893333333333334",
  "latitude": "69.722777777777779",
  "timezone_id": "Europe/Oslo"
}, {
  "kind": "airport",
  "id": "MEH",
  "mac_id": null,
  "name": "Mehamn",
  "country_code": "NO",
  "longitude": "27.833333333333332",
  "latitude": "71.033333333333331",
  "timezone_id": "Europe/Oslo"
}, {
  "kind": "airport",
  "id": "MQN",
  "mac_id": null,
  "name": "Mo I Rana",
  "country_code": "NO",
  "longitude": "14.301388888888889",
  "latitude": "66.36388888888888",
  "timezone_id": "Europe/Oslo"
}, {
  "kind": "airport",
  "id": "VAW",
  "mac_id": null,
  "name": "Vardo",
  "country_code": "NO",
  "longitude": "31.045",
  "latitude": "70.355277777777772",
  "timezone_id": "Europe/Oslo"
}, {
  "kind": "airport",
  "id": "BGO",
  "mac_id": null,
  "name": "Bergen",
  "country_code": "NO",
  "longitude": "5.2180555555555559",
  "latitude": "60.293333333333329",
  "timezone_id": "Europe/Oslo"
}, {
  "kind": "airport",
  "id": "BDU",
  "mac_id": null,
  "name": "Bardufoss",
  "country_code": "NO",
  "longitude": "18.540000000000003",
  "latitude": "69.056111111111107",
  "timezone_id": "Europe/Oslo"
}, {
  "kind": "airport",
  "id": "OSL",
  "mac_id": "city/OSL",
  "name": "Oslo",
  "country_code": "NO",
  "longitude": "11.100277777777777",
  "latitude": "60.193888888888885",
  "timezone_id": "Europe/Oslo"
}, {
  "kind": "airport",
  "id": "BVG",
  "mac_id": null,
  "name": "Berlevag",
  "country_code": "NO",
  "longitude": "29.0",
  "latitude": "70.86666666666666",
  "timezone_id": "Europe/Oslo"
}, {
  "kind": "airport",
  "id": "BNN",
  "mac_id": null,
  "name": "Bronnoysund",
  "country_code": "NO",
  "longitude": "12.206944444444444",
  "latitude": "65.460277777777776",
  "timezone_id": "Europe/Oslo"
}, {
  "kind": "airport",
  "id": "FRO",
  "mac_id": null,
  "name": "Floro",
  "country_code": "NO",
  "longitude": "5.014444444444444",
  "latitude": "61.581944444444446",
  "timezone_id": "Europe/Oslo"
}, {
  "kind": "airport",
  "id": "RIX",
  "mac_id": null,
  "name": "Riga",
  "country_code": "LV",
  "longitude": "23.97111111111111",
  "latitude": "56.923611111111107",
  "timezone_id": "Europe/Riga"
}, {
  "kind": "airport",
  "id": "PMF",
  "mac_id": "city/MIL",
  "name": "Milan",
  "country_code": "IT",
  "longitude": "10.295277777777777",
  "latitude": "44.822222222222223",
  "timezone_id": "Europe/Rome"
}, {
  "kind": "airport",
  "id": "PSR",
  "mac_id": null,
  "name": "Pescara",
  "country_code": "IT",
  "longitude": "14.187222222222223",
  "latitude": "42.437222222222218",
  "timezone_id": "Europe/Rome"
}, {
  "kind": "airport",
  "id": "REG",
  "mac_id": null,
  "name": "Reggio di Calabria",
  "country_code": "IT",
  "longitude": "15.653611111111111",
  "latitude": "38.071944444444448",
  "timezone_id": "Europe/Rome"
}, {
  "kind": "airport",
  "id": "TRN",
  "mac_id": null,
  "name": "Turin",
  "country_code": "IT",
  "longitude": "7.6497222222222216",
  "latitude": "45.200833333333335",
  "timezone_id": "Europe/Rome"
}, {
  "kind": "airport",
  "id": "CRV",
  "mac_id": null,
  "name": "Crotone",
  "country_code": "IT",
  "longitude": "17.079166666666666",
  "latitude": "38.99666666666667",
  "timezone_id": "Europe/Rome"
}, {
  "kind": "airport",
  "id": "AHO",
  "mac_id": null,
  "name": "Alghero",
  "country_code": "IT",
  "longitude": "8.2886111111111109",
  "latitude": "40.63111111111111",
  "timezone_id": "Europe/Rome"
}, {
  "kind": "airport",
  "id": "SUF",
  "mac_id": null,
  "name": "Lamezia Terme",
  "country_code": "IT",
  "longitude": "16.242222222222225",
  "latitude": "38.905277777777776",
  "timezone_id": "Europe/Rome"
}, {
  "kind": "airport",
  "id": "FRL",
  "mac_id": null,
  "name": "Forli",
  "country_code": "IT",
  "longitude": "12.069722222222222",
  "latitude": "44.195555555555551",
  "timezone_id": "Europe/Rome"
}, {
  "kind": "airport",
  "id": "LIN",
  "mac_id": "city/MIL",
  "name": "Milan",
  "country_code": "IT",
  "longitude": "9.2783333333333342",
  "latitude": "45.449444444444438",
  "timezone_id": "Europe/Rome"
}, {
  "kind": "airport",
  "id": "FLR",
  "mac_id": null,
  "name": "Florence",
  "country_code": "IT",
  "longitude": "11.202777777777778",
  "latitude": "43.808611111111105",
  "timezone_id": "Europe/Rome"
}, {
  "kind": "airport",
  "id": "MXP",
  "mac_id": "city/MIL",
  "name": "Milan",
  "country_code": "IT",
  "longitude": "8.7230555555555558",
  "latitude": "45.63",
  "timezone_id": "Europe/Rome"
}, {
  "kind": "airport",
  "id": "PEG",
  "mac_id": null,
  "name": "Perugia",
  "country_code": "IT",
  "longitude": "12.510277777777778",
  "latitude": "43.097222222222221",
  "timezone_id": "Europe/Rome"
}, {
  "kind": "airport",
  "id": "AOI",
  "mac_id": null,
  "name": "Ancona",
  "country_code": "IT",
  "longitude": "13.360277777777778",
  "latitude": "43.616666666666667",
  "timezone_id": "Europe/Rome"
}, {
  "kind": "airport",
  "id": "PMO",
  "mac_id": null,
  "name": "Palermo",
  "country_code": "IT",
  "longitude": "13.091111111111111",
  "latitude": "38.17583333333333",
  "timezone_id": "Europe/Rome"
}, {
  "kind": "airport",
  "id": "BDS",
  "mac_id": null,
  "name": "Brindisi",
  "country_code": "IT",
  "longitude": "17.948055555555555",
  "latitude": "40.660555555555554",
  "timezone_id": "Europe/Rome"
}, {
  "kind": "airport",
  "id": "CAG",
  "mac_id": null,
  "name": "Cagliari",
  "country_code": "IT",
  "longitude": "9.056111111111111",
  "latitude": "39.24722222222222",
  "timezone_id": "Europe/Rome"
}, {
  "kind": "airport",
  "id": "BLQ",
  "mac_id": null,
  "name": "Bologna",
  "country_code": "IT",
  "longitude": "11.296944444444444",
  "latitude": "44.530833333333334",
  "timezone_id": "Europe/Rome"
}, {
  "kind": "airport",
  "id": "EBA",
  "mac_id": null,
  "name": "Elba Island",
  "country_code": "IT",
  "longitude": "10.239722222222222",
  "latitude": "42.761666666666663",
  "timezone_id": "Europe/Rome"
}, {
  "kind": "airport",
  "id": "CTA",
  "mac_id": null,
  "name": "Catania",
  "country_code": "IT",
  "longitude": "15.066388888888889",
  "latitude": "37.466666666666669",
  "timezone_id": "Europe/Rome"
}, {
  "kind": "airport",
  "id": "BRI",
  "mac_id": null,
  "name": "Bari",
  "country_code": "IT",
  "longitude": "16.765",
  "latitude": "41.138055555555553",
  "timezone_id": "Europe/Rome"
}, {
  "kind": "airport",
  "id": "CUF",
  "mac_id": null,
  "name": "Cuneo",
  "country_code": "IT",
  "longitude": "7.623333333333334",
  "latitude": "44.546944444444442",
  "timezone_id": "Europe/Rome"
}, {
  "kind": "airport",
  "id": "LMP",
  "mac_id": null,
  "name": "Lampedusa",
  "country_code": "IT",
  "longitude": "12.618333333333334",
  "latitude": "35.49805555555556",
  "timezone_id": "Europe/Rome"
}, {
  "kind": "airport",
  "id": "OLB",
  "mac_id": null,
  "name": "Olbia",
  "country_code": "IT",
  "longitude": "9.5177777777777788",
  "latitude": "40.898611111111109",
  "timezone_id": "Europe/Rome"
}, {
  "kind": "airport",
  "id": "NAP",
  "mac_id": null,
  "name": "Naples",
  "country_code": "IT",
  "longitude": "14.290833333333333",
  "latitude": "40.884444444444441",
  "timezone_id": "Europe/Rome"
}, {
  "kind": "airport",
  "id": "PSA",
  "mac_id": null,
  "name": "Pisa",
  "country_code": "IT",
  "longitude": "10.395555555555555",
  "latitude": "43.682777777777773",
  "timezone_id": "Europe/Rome"
}, {
  "kind": "airport",
  "id": "BZO",
  "mac_id": null,
  "name": "Bolzano/Bozen",
  "country_code": "IT",
  "longitude": "11.326388888888889",
  "latitude": "46.460277777777783",
  "timezone_id": "Europe/Rome"
}, {
  "kind": "airport",
  "id": "TPS",
  "mac_id": null,
  "name": "Trapani",
  "country_code": "IT",
  "longitude": "12.488055555555555",
  "latitude": "37.911388888888887",
  "timezone_id": "Europe/Rome"
}, {
  "kind": "airport",
  "id": "VRN",
  "mac_id": null,
  "name": "Verona",
  "country_code": "IT",
  "longitude": "10.888611111111111",
  "latitude": "45.395833333333336",
  "timezone_id": "Europe/Rome"
}, {
  "kind": "airport",
  "id": "BGY",
  "mac_id": "city/MIL",
  "name": "Milan",
  "country_code": "IT",
  "longitude": "9.7002777777777762",
  "latitude": "45.668888888888887",
  "timezone_id": "Europe/Rome"
}, {
  "kind": "airport",
  "id": "FCO",
  "mac_id": "city/ROM",
  "name": "Rome",
  "country_code": "IT",
  "longitude": "12.238888888888889",
  "latitude": "41.800277777777772",
  "timezone_id": "Europe/Rome"
}, {
  "kind": "airport",
  "id": "CIY",
  "mac_id": null,
  "name": "Comiso",
  "country_code": "IT",
  "longitude": "14.606944444444444",
  "latitude": "36.991666666666667",
  "timezone_id": "Europe/Rome"
}, {
  "kind": "airport",
  "id": "RMI",
  "mac_id": null,
  "name": "Rimini",
  "country_code": "IT",
  "longitude": "12.609444444444444",
  "latitude": "44.019444444444446",
  "timezone_id": "Europe/Rome"
}, {
  "kind": "airport",
  "id": "TSF",
  "mac_id": "city/VCE",
  "name": "Venice",
  "country_code": "IT",
  "longitude": "12.197777777777778",
  "latitude": "45.650833333333331",
  "timezone_id": "Europe/Rome"
}, {
  "kind": "airport",
  "id": "GOA",
  "mac_id": null,
  "name": "Genoa",
  "country_code": "IT",
  "longitude": "8.8375",
  "latitude": "44.413333333333334",
  "timezone_id": "Europe/Rome"
}, {
  "kind": "airport",
  "id": "PNL",
  "mac_id": null,
  "name": "Pantelleria",
  "country_code": "IT",
  "longitude": "11.960833333333333",
  "latitude": "36.81305555555555",
  "timezone_id": "Europe/Rome"
}, {
  "kind": "airport",
  "id": "VCE",
  "mac_id": "city/VCE",
  "name": "Venice",
  "country_code": "IT",
  "longitude": "12.351944444444444",
  "latitude": "45.505277777777778",
  "timezone_id": "Europe/Rome"
}, {
  "kind": "airport",
  "id": "TRS",
  "mac_id": null,
  "name": "Trieste",
  "country_code": "IT",
  "longitude": "13.472222222222223",
  "latitude": "45.8275",
  "timezone_id": "Europe/Rome"
}, {
  "kind": "airport",
  "id": "PRI",
  "mac_id": null,
  "name": "Praslin Island",
  "country_code": "SC",
  "longitude": "55.692777777777778",
  "latitude": "-4.3191666666666668",
  "timezone_id": "Indian/Mahe"
}, {
  "kind": "airport",
  "id": "SEZ",
  "mac_id": null,
  "name": "Mahe Island",
  "country_code": "SC",
  "longitude": "55.5225",
  "latitude": "-4.6722222222222225",
  "timezone_id": "Indian/Mahe"
}, {
  "kind": "airport",
  "id": "ACC",
  "mac_id": null,
  "name": "Accra",
  "country_code": "GH",
  "longitude": "-0.17083333333333334",
  "latitude": "5.5952777777777776",
  "timezone_id": "Africa/Accra"
}, {
  "kind": "airport",
  "id": "ASW",
  "mac_id": null,
  "name": "Aswan",
  "country_code": "EG",
  "longitude": "32.82",
  "latitude": "23.964444444444442",
  "timezone_id": "Africa/Cairo"
}, {
  "kind": "airport",
  "id": "CAI",
  "mac_id": null,
  "name": "Cairo",
  "country_code": "EG",
  "longitude": "31.406944444444441",
  "latitude": "30.1375",
  "timezone_id": "Africa/Cairo"
}, {
  "kind": "airport",
  "id": "RMF",
  "mac_id": null,
  "name": "Marsa Alam",
  "country_code": "EG",
  "longitude": "34.583611111111111",
  "latitude": "25.557222222222222",
  "timezone_id": "Africa/Cairo"
}, {
  "kind": "airport",
  "id": "SSH",
  "mac_id": null,
  "name": "Sharm el-Sheikh",
  "country_code": "EG",
  "longitude": "34.394999999999996",
  "latitude": "27.97722222222222",
  "timezone_id": "Africa/Cairo"
}, {
  "kind": "airport",
  "id": "LXR",
  "mac_id": null,
  "name": "Luxor",
  "country_code": "EG",
  "longitude": "32.7075",
  "latitude": "25.673055555555557",
  "timezone_id": "Africa/Cairo"
}, {
  "kind": "airport",
  "id": "HBE",
  "mac_id": null,
  "name": "Alexandria",
  "country_code": "EG",
  "longitude": "29.683333333333334",
  "latitude": "30.9",
  "timezone_id": "Africa/Cairo"
}, {
  "kind": "airport",
  "id": "ATZ",
  "mac_id": null,
  "name": "Asyut",
  "country_code": "EG",
  "longitude": "31.011944444444445",
  "latitude": "27.046388888888892",
  "timezone_id": "Africa/Cairo"
}, {
  "kind": "airport",
  "id": "HRG",
  "mac_id": null,
  "name": "Hurghada",
  "country_code": "EG",
  "longitude": "33.80083333333333",
  "latitude": "27.178611111111113",
  "timezone_id": "Africa/Cairo"
}, {
  "kind": "airport",
  "id": "ABS",
  "mac_id": null,
  "name": "Abu Simbel",
  "country_code": "EG",
  "longitude": "31.615277777777781",
  "latitude": "22.372222222222224",
  "timezone_id": "Africa/Cairo"
}, {
  "kind": "airport",
  "id": "HMB",
  "mac_id": null,
  "name": "Sohag",
  "country_code": "EG",
  "longitude": "31.743055555555557",
  "latitude": "26.341111111111111",
  "timezone_id": "Africa/Cairo"
}, {
  "kind": "airport",
  "id": "DKR",
  "mac_id": "city/DKR",
  "name": "Dakar",
  "country_code": "SN",
  "longitude": "-17.490555555555556",
  "latitude": "14.740833333333333",
  "timezone_id": "Africa/Dakar"
}, {
  "kind": "airport",
  "id": "ZIG",
  "mac_id": null,
  "name": "Ziguinchor",
  "country_code": "SN",
  "longitude": "-16.275833333333331",
  "latitude": "12.556111111111111",
  "timezone_id": "Africa/Dakar"
}, {
  "kind": "airport",
  "id": "CSK",
  "mac_id": null,
  "name": "Cap Skiring",
  "country_code": "SN",
  "longitude": "-16.75",
  "latitude": "12.4",
  "timezone_id": "Africa/Dakar"
}, {
  "kind": "airport",
  "id": "DSS",
  "mac_id": "city/DKR",
  "name": "Dakar",
  "country_code": "SN",
  "longitude": "-17.066944444444445",
  "latitude": "14.671111111111111",
  "timezone_id": "Africa/Dakar"
}, {
  "kind": "airport",
  "id": "LOS",
  "mac_id": null,
  "name": "Lagos",
  "country_code": "NG",
  "longitude": "3.3211111111111107",
  "latitude": "6.5775",
  "timezone_id": "Africa/Lagos"
}, {
  "kind": "airport",
  "id": "KAD",
  "mac_id": null,
  "name": "Kaduna",
  "country_code": "NG",
  "longitude": "7.3199999999999994",
  "latitude": "10.696111111111112",
  "timezone_id": "Africa/Lagos"
}, {
  "kind": "airport",
  "id": "QRW",
  "mac_id": null,
  "name": "Warri",
  "country_code": "NG",
  "longitude": "5.8177777777777777",
  "latitude": "5.596111111111111",
  "timezone_id": "Africa/Lagos"
}, {
  "kind": "airport",
  "id": "QOW",
  "mac_id": null,
  "name": "Owerri",
  "country_code": "NG",
  "longitude": "7.2061111111111114",
  "latitude": "5.4269444444444446",
  "timezone_id": "Africa/Lagos"
}, {
  "kind": "airport",
  "id": "CBQ",
  "mac_id": null,
  "name": "Calabar",
  "country_code": "NG",
  "longitude": "8.3427777777777781",
  "latitude": "4.9636111111111116",
  "timezone_id": "Africa/Lagos"
}, {
  "kind": "airport",
  "id": "KAN",
  "mac_id": null,
  "name": "Kano",
  "country_code": "NG",
  "longitude": "8.5238888888888891",
  "latitude": "12.046388888888888",
  "timezone_id": "Africa/Lagos"
}, {
  "kind": "airport",
  "id": "IBA",
  "mac_id": null,
  "name": "Ibadan",
  "country_code": "NG",
  "longitude": "3.975",
  "latitude": "7.3583333333333334",
  "timezone_id": "Africa/Lagos"
}, {
  "kind": "airport",
  "id": "ENU",
  "mac_id": null,
  "name": "Enugu",
  "country_code": "NG",
  "longitude": "7.5661111111111108",
  "latitude": "6.4755555555555553",
  "timezone_id": "Africa/Lagos"
}, {
  "kind": "airport",
  "id": "BNI",
  "mac_id": null,
  "name": "Benin City",
  "country_code": "NG",
  "longitude": "5.6016666666666666",
  "latitude": "6.3238888888888889",
  "timezone_id": "Africa/Lagos"
}, {
  "kind": "airport",
  "id": "SKO",
  "mac_id": null,
  "name": "Sokoto",
  "country_code": "NG",
  "longitude": "5.2083333333333339",
  "latitude": "12.917499999999999",
  "timezone_id": "Africa/Lagos"
}, {
  "kind": "airport",
  "id": "YOL",
  "mac_id": null,
  "name": "Yola",
  "country_code": "NG",
  "longitude": "12.430555555555555",
  "latitude": "9.2575",
  "timezone_id": "Africa/Lagos"
}, {
  "kind": "airport",
  "id": "ABV",
  "mac_id": null,
  "name": "Abuja",
  "country_code": "NG",
  "longitude": "7.2666666666666666",
  "latitude": "9.0",
  "timezone_id": "Africa/Lagos"
}, {
  "kind": "airport",
  "id": "JOS",
  "mac_id": null,
  "name": "Jos",
  "country_code": "NG",
  "longitude": "8.8930555555555557",
  "latitude": "9.8680555555555554",
  "timezone_id": "Africa/Lagos"
}, {
  "kind": "airport",
  "id": "PHC",
  "mac_id": null,
  "name": "Port Harcourt",
  "country_code": "NG",
  "longitude": "6.9497222222222224",
  "latitude": "5.0155555555555553",
  "timezone_id": "Africa/Lagos"
}, {
  "kind": "airport",
  "id": "SFA",
  "mac_id": null,
  "name": "Sfax",
  "country_code": "TN",
  "longitude": "10.688611111111111",
  "latitude": "34.720555555555556",
  "timezone_id": "Africa/Tunis"
}, {
  "kind": "airport",
  "id": "DJE",
  "mac_id": null,
  "name": "Djerba",
  "country_code": "TN",
  "longitude": "10.777222222222223",
  "latitude": "33.875555555555557",
  "timezone_id": "Africa/Tunis"
}, {
  "kind": "airport",
  "id": "TUN",
  "mac_id": null,
  "name": "Tunis",
  "country_code": "TN",
  "longitude": "10.226944444444445",
  "latitude": "36.851111111111109",
  "timezone_id": "Africa/Tunis"
}, {
  "kind": "airport",
  "id": "MIR",
  "mac_id": null,
  "name": "Monastir",
  "country_code": "TN",
  "longitude": "10.754722222222222",
  "latitude": "35.758055555555558",
  "timezone_id": "Africa/Tunis"
}, {
  "kind": "airport",
  "id": "TOE",
  "mac_id": null,
  "name": "Tozeur",
  "country_code": "TN",
  "longitude": "8.1333333333333329",
  "latitude": "33.916666666666664",
  "timezone_id": "Africa/Tunis"
}, {
  "kind": "airport",
  "id": "NBE",
  "mac_id": null,
  "name": "Enfidha",
  "country_code": "TN",
  "longitude": "10.438611111111111",
  "latitude": "36.075833333333335",
  "timezone_id": "Africa/Tunis"
}, {
  "kind": "airport",
  "id": "PEM",
  "mac_id": null,
  "name": "Puerto Maldonado",
  "country_code": "PE",
  "longitude": "-69.233333333333334",
  "latitude": "-12.583333333333334",
  "timezone_id": "America/Lima"
}, {
  "kind": "airport",
  "id": "CUZ",
  "mac_id": null,
  "name": "Cusco",
  "country_code": "PE",
  "longitude": "-71.959722222222226",
  "latitude": "-13.529444444444445",
  "timezone_id": "America/Lima"
}, {
  "kind": "airport",
  "id": "JUL",
  "mac_id": null,
  "name": "Juliaca",
  "country_code": "PE",
  "longitude": "-70.154444444444451",
  "latitude": "-15.464166666666666",
  "timezone_id": "America/Lima"
}, {
  "kind": "airport",
  "id": "PCL",
  "mac_id": null,
  "name": "Pucallpa",
  "country_code": "PE",
  "longitude": "-74.574166666666656",
  "latitude": "-8.3777777777777782",
  "timezone_id": "America/Lima"
}, {
  "kind": "airport",
  "id": "CJA",
  "mac_id": null,
  "name": "Cajamarca",
  "country_code": "PE",
  "longitude": "-78.5",
  "latitude": "-7.1333333333333337",
  "timezone_id": "America/Lima"
}, {
  "kind": "airport",
  "id": "TRU",
  "mac_id": null,
  "name": "Trujillo",
  "country_code": "PE",
  "longitude": "-79.1086111111111",
  "latitude": "-8.081666666666667",
  "timezone_id": "America/Lima"
}, {
  "kind": "airport",
  "id": "ILQ",
  "mac_id": null,
  "name": "Ilo",
  "country_code": "PE",
  "longitude": "-71.333333333333329",
  "latitude": "-17.666666666666668",
  "timezone_id": "America/Lima"
}, {
  "kind": "airport",
  "id": "AQP",
  "mac_id": null,
  "name": "Arequipa",
  "country_code": "PE",
  "longitude": "-71.554999999999993",
  "latitude": "-16.337777777777777",
  "timezone_id": "America/Lima"
}, {
  "kind": "airport",
  "id": "TCQ",
  "mac_id": null,
  "name": "Tacna",
  "country_code": "PE",
  "longitude": "-70.278888888888886",
  "latitude": "-18.063333333333333",
  "timezone_id": "America/Lima"
}, {
  "kind": "airport",
  "id": "TBP",
  "mac_id": null,
  "name": "Tumbes",
  "country_code": "PE",
  "longitude": "-80.416666666666671",
  "latitude": "-3.5666666666666664",
  "timezone_id": "America/Lima"
}, {
  "kind": "airport",
  "id": "JAU",
  "mac_id": null,
  "name": "Jauja",
  "country_code": "PE",
  "longitude": "-75.468611111111116",
  "latitude": "-11.780277777777778",
  "timezone_id": "America/Lima"
}, {
  "kind": "airport",
  "id": "TPP",
  "mac_id": null,
  "name": "Tarapoto",
  "country_code": "PE",
  "longitude": "-76.398611111111123",
  "latitude": "-6.5111111111111111",
  "timezone_id": "America/Lima"
}, {
  "kind": "airport",
  "id": "PIU",
  "mac_id": null,
  "name": "Piura",
  "country_code": "PE",
  "longitude": "-80.61333333333333",
  "latitude": "-5.2016666666666671",
  "timezone_id": "America/Lima"
}, {
  "kind": "airport",
  "id": "CIX",
  "mac_id": null,
  "name": "Chiclayo",
  "country_code": "PE",
  "longitude": "-79.832222222222214",
  "latitude": "-6.7897222222222222",
  "timezone_id": "America/Lima"
}, {
  "kind": "airport",
  "id": "AYP",
  "mac_id": null,
  "name": "Ayacucho",
  "country_code": "PE",
  "longitude": "-74.24722222222222",
  "latitude": "-13.197222222222223",
  "timezone_id": "America/Lima"
}, {
  "kind": "airport",
  "id": "TYL",
  "mac_id": null,
  "name": "Talara",
  "country_code": "PE",
  "longitude": "-81.25277777777778",
  "latitude": "-4.5647222222222217",
  "timezone_id": "America/Lima"
}, {
  "kind": "airport",
  "id": "LIM",
  "mac_id": null,
  "name": "Lima",
  "country_code": "PE",
  "longitude": "-77.12277777777777",
  "latitude": "-12.026666666666667",
  "timezone_id": "America/Lima"
}, {
  "kind": "airport",
  "id": "IQT",
  "mac_id": null,
  "name": "Iquitos",
  "country_code": "PE",
  "longitude": "-73.308333333333337",
  "latitude": "-3.7844444444444445",
  "timezone_id": "America/Lima"
}, {
  "kind": "airport",
  "id": "SFJ",
  "mac_id": null,
  "name": "Kangerlussuaq",
  "country_code": "GL",
  "longitude": "-50.719722222222224",
  "latitude": "67.012222222222221",
  "timezone_id": "America/Nuuk"
}, {
  "kind": "airport",
  "id": "JSU",
  "mac_id": null,
  "name": "Maniitsoq",
  "country_code": "GL",
  "longitude": "-52.939444",
  "latitude": "65.4125",
  "timezone_id": "America/Nuuk"
}, {
  "kind": "airport",
  "id": "JHS",
  "mac_id": null,
  "name": "Sisimiut",
  "country_code": "GL",
  "longitude": "-53.704166666666673",
  "latitude": "66.93694444444445",
  "timezone_id": "America/Nuuk"
}, {
  "kind": "airport",
  "id": "JAV",
  "mac_id": null,
  "name": "Ilulissat",
  "country_code": "GL",
  "longitude": "-51.051111111111105",
  "latitude": "69.234444444444449",
  "timezone_id": "America/Nuuk"
}, {
  "kind": "airport",
  "id": "UAK",
  "mac_id": null,
  "name": "Narsarsuaq",
  "country_code": "GL",
  "longitude": "-45.425555555555555",
  "latitude": "61.160833333333329",
  "timezone_id": "America/Nuuk"
}, {
  "kind": "airport",
  "id": "JEG",
  "mac_id": null,
  "name": "Aasiaat",
  "country_code": "GL",
  "longitude": "-52.75",
  "latitude": "68.7",
  "timezone_id": "America/Nuuk"
}, {
  "kind": "airport",
  "id": "GOH",
  "mac_id": null,
  "name": "Nuuk",
  "country_code": "GL",
  "longitude": "-51.674166666666665",
  "latitude": "64.191666666666677",
  "timezone_id": "America/Nuuk"
}, {
  "kind": "airport",
  "id": "BGW",
  "mac_id": null,
  "name": "Baghdad",
  "country_code": "IQ",
  "longitude": "44.219444444444449",
  "latitude": "33.25888888888889",
  "timezone_id": "Asia/Baghdad"
}, {
  "kind": "airport",
  "id": "EBL",
  "mac_id": null,
  "name": "Erbil",
  "country_code": "IQ",
  "longitude": "43.966666666666669",
  "latitude": "36.233333333333334",
  "timezone_id": "Asia/Baghdad"
}, {
  "kind": "airport",
  "id": "ISU",
  "mac_id": null,
  "name": "Sulaymaniyah",
  "country_code": "IQ",
  "longitude": "45.314722222222223",
  "latitude": "35.560833333333328",
  "timezone_id": "Asia/Baghdad"
}, {
  "kind": "airport",
  "id": "BSR",
  "mac_id": null,
  "name": "Basrah",
  "country_code": "IQ",
  "longitude": "47.661666666666662",
  "latitude": "30.548888888888889",
  "timezone_id": "Asia/Baghdad"
}, {
  "kind": "airport",
  "id": "NJF",
  "mac_id": null,
  "name": "Al Najaf",
  "country_code": "IQ",
  "longitude": "44.4",
  "latitude": "31.983333333333334",
  "timezone_id": "Asia/Baghdad"
}, {
  "kind": "airport",
  "id": "BAH",
  "mac_id": null,
  "name": "Bahrain",
  "country_code": "BH",
  "longitude": "50.633611111111108",
  "latitude": "26.270833333333332",
  "timezone_id": "Asia/Bahrain"
}, {
  "kind": "airport",
  "id": "HDY",
  "mac_id": null,
  "name": "Hat Yai",
  "country_code": "TH",
  "longitude": "100.39305555555556",
  "latitude": "6.9333333333333336",
  "timezone_id": "Asia/Bangkok"
}, {
  "kind": "airport",
  "id": "KBV",
  "mac_id": null,
  "name": "Krabi",
  "country_code": "TH",
  "longitude": "98.981388888888887",
  "latitude": "8.0975",
  "timezone_id": "Asia/Bangkok"
}, {
  "kind": "airport",
  "id": "KKC",
  "mac_id": null,
  "name": "Khon Kaen",
  "country_code": "TH",
  "longitude": "102.78666666666666",
  "latitude": "16.465",
  "timezone_id": "Asia/Bangkok"
}, {
  "kind": "airport",
  "id": "UTH",
  "mac_id": null,
  "name": "Udon Thani",
  "country_code": "TH",
  "longitude": "102.79277777777777",
  "latitude": "17.384999999999998",
  "timezone_id": "Asia/Bangkok"
}, {
  "kind": "airport",
  "id": "THS",
  "mac_id": null,
  "name": "Sukhothai",
  "country_code": "TH",
  "longitude": "99.818055555555546",
  "latitude": "17.238055555555558",
  "timezone_id": "Asia/Bangkok"
}, {
  "kind": "airport",
  "id": "NST",
  "mac_id": null,
  "name": "Nakhon Si Thammarat",
  "country_code": "TH",
  "longitude": "99.94",
  "latitude": "8.5372222222222227",
  "timezone_id": "Asia/Bangkok"
}, {
  "kind": "airport",
  "id": "DMK",
  "mac_id": "city/BKK",
  "name": "Bangkok",
  "country_code": "TH",
  "longitude": "100.60833333333333",
  "latitude": "13.911111111111111",
  "timezone_id": "Asia/Bangkok"
}, {
  "kind": "airport",
  "id": "CNX",
  "mac_id": null,
  "name": "Chiang Mai",
  "country_code": "TH",
  "longitude": "98.968333333333334",
  "latitude": "18.771944444444443",
  "timezone_id": "Asia/Bangkok"
}, {
  "kind": "airport",
  "id": "UTP",
  "mac_id": null,
  "name": "Pattaya",
  "country_code": "TH",
  "longitude": "101.01666666666667",
  "latitude": "12.683333333333334",
  "timezone_id": "Asia/Bangkok"
}, {
  "kind": "airport",
  "id": "HKT",
  "mac_id": null,
  "name": "Phuket",
  "country_code": "TH",
  "longitude": "98.316944444444445",
  "latitude": "8.1133333333333333",
  "timezone_id": "Asia/Bangkok"
}, {
  "kind": "airport",
  "id": "URT",
  "mac_id": null,
  "name": "Surat Thani",
  "country_code": "TH",
  "longitude": "99.139166666666668",
  "latitude": "9.1358333333333324",
  "timezone_id": "Asia/Bangkok"
}, {
  "kind": "airport",
  "id": "USM",
  "mac_id": null,
  "name": "Ko Samui",
  "country_code": "TH",
  "longitude": "100.06222222222222",
  "latitude": "9.5477777777777781",
  "timezone_id": "Asia/Bangkok"
}, {
  "kind": "airport",
  "id": "CEI",
  "mac_id": null,
  "name": "Chiang Rai",
  "country_code": "TH",
  "longitude": "99.883055555555543",
  "latitude": "19.951944444444443",
  "timezone_id": "Asia/Bangkok"
}, {
  "kind": "airport",
  "id": "BKK",
  "mac_id": "city/BKK",
  "name": "Bangkok",
  "country_code": "TH",
  "longitude": "100.74722222222222",
  "latitude": "13.681111111111111",
  "timezone_id": "Asia/Bangkok"
}, {
  "kind": "airport",
  "id": "TDX",
  "mac_id": null,
  "name": "Trat",
  "country_code": "TH",
  "longitude": "102.31888888888888",
  "latitude": "12.274444444444445",
  "timezone_id": "Asia/Bangkok"
}, {
  "kind": "airport",
  "id": "LPT",
  "mac_id": null,
  "name": "Lampang",
  "country_code": "TH",
  "longitude": "99.507222222222225",
  "latitude": "18.274166666666666",
  "timezone_id": "Asia/Bangkok"
}, {
  "kind": "airport",
  "id": "UBP",
  "mac_id": null,
  "name": "Ubon Ratchathani",
  "country_code": "TH",
  "longitude": "104.8736111111111",
  "latitude": "15.248888888888889",
  "timezone_id": "Asia/Bangkok"
}, {
  "kind": "airport",
  "id": "OSS",
  "mac_id": null,
  "name": "Osh",
  "country_code": "KG",
  "longitude": "72.816666666666663",
  "latitude": "40.616666666666667",
  "timezone_id": "Asia/Bishkek"
}, {
  "kind": "airport",
  "id": "FRU",
  "mac_id": null,
  "name": "Bishkek",
  "country_code": "KG",
  "longitude": "74.473055555555561",
  "latitude": "43.05833333333333",
  "timezone_id": "Asia/Bishkek"
}, {
  "kind": "airport",
  "id": "CMB",
  "mac_id": null,
  "name": "Colombo",
  "country_code": "LK",
  "longitude": "79.884722222222223",
  "latitude": "7.1750000000000007",
  "timezone_id": "Asia/Colombo"
}, {
  "kind": "airport",
  "id": "IKT",
  "mac_id": null,
  "name": "Irkutsk",
  "country_code": "RU",
  "longitude": "104.30499999999999",
  "latitude": "52.286944444444444",
  "timezone_id": "Asia/Irkutsk"
}, {
  "kind": "airport",
  "id": "UUD",
  "mac_id": null,
  "name": "Ulan-Ude",
  "country_code": "RU",
  "longitude": "107.43833333333333",
  "latitude": "51.807777777777773",
  "timezone_id": "Asia/Irkutsk"
}, {
  "kind": "airport",
  "id": "BTK",
  "mac_id": null,
  "name": "Bratsk",
  "country_code": "RU",
  "longitude": "101.69861111111112",
  "latitude": "56.370555555555555",
  "timezone_id": "Asia/Irkutsk"
}, {
  "kind": "airport",
  "id": "SRG",
  "mac_id": null,
  "name": "Semarang",
  "country_code": "ID",
  "longitude": "110.38",
  "latitude": "-6.9758333333333331",
  "timezone_id": "Asia/Jakarta"
}, {
  "kind": "airport",
  "id": "KNO",
  "mac_id": "city/MES",
  "name": "Medan",
  "country_code": "ID",
  "longitude": "98.885277777777787",
  "latitude": "3.6422222222222222",
  "timezone_id": "Asia/Jakarta"
}, {
  "kind": "airport",
  "id": "PLM",
  "mac_id": null,
  "name": "Palembang",
  "country_code": "ID",
  "longitude": "104.69944444444445",
  "latitude": "-2.9",
  "timezone_id": "Asia/Jakarta"
}, {
  "kind": "airport",
  "id": "SUB",
  "mac_id": null,
  "name": "Surabaya",
  "country_code": "ID",
  "longitude": "112.78694444444444",
  "latitude": "-7.3797222222222221",
  "timezone_id": "Asia/Jakarta"
}, {
  "kind": "airport",
  "id": "TNJ",
  "mac_id": null,
  "name": "Tanjung Pinang",
  "country_code": "ID",
  "longitude": "104.53222222222222",
  "latitude": "0.9227777777777777",
  "timezone_id": "Asia/Jakarta"
}, {
  "kind": "airport",
  "id": "DJB",
  "mac_id": null,
  "name": "Jambi",
  "country_code": "ID",
  "longitude": "103.64166666666668",
  "latitude": "-1.6347222222222222",
  "timezone_id": "Asia/Jakarta"
}, {
  "kind": "airport",
  "id": "BTJ",
  "mac_id": null,
  "name": "Banda Aceh",
  "country_code": "ID",
  "longitude": "95.419444444444451",
  "latitude": "5.52",
  "timezone_id": "Asia/Jakarta"
}, {
  "kind": "airport",
  "id": "YIA",
  "mac_id": null,
  "name": "Yogyakarta",
  "country_code": "ID",
  "longitude": "110.05444444",
  "latitude": "-7.9075",
  "timezone_id": "Asia/Jakarta"
}, {
  "kind": "airport",
  "id": "HLP",
  "mac_id": null,
  "name": "Jakarta",
  "country_code": "ID",
  "longitude": "106.89027777777778",
  "latitude": "-6.2680555555555557",
  "timezone_id": "Asia/Jakarta"
}, {
  "kind": "airport",
  "id": "SOC",
  "mac_id": null,
  "name": "Surakarta (Solo)",
  "country_code": "ID",
  "longitude": "110.75694444444444",
  "latitude": "-7.516111111111111",
  "timezone_id": "Asia/Jakarta"
}, {
  "kind": "airport",
  "id": "PKU",
  "mac_id": null,
  "name": "Pekanbaru",
  "country_code": "ID",
  "longitude": "101.44444444444444",
  "latitude": "0.46",
  "timezone_id": "Asia/Jakarta"
}, {
  "kind": "airport",
  "id": "TKG",
  "mac_id": null,
  "name": "Bandar Lampung",
  "country_code": "ID",
  "longitude": "105.17888888888889",
  "latitude": "-5.2422222222222219",
  "timezone_id": "Asia/Jakarta"
}, {
  "kind": "airport",
  "id": "PDG",
  "mac_id": null,
  "name": "Padang",
  "country_code": "ID",
  "longitude": "100.28055555555555",
  "latitude": "-0.78666666666666663",
  "timezone_id": "Asia/Jakarta"
}, {
  "kind": "airport",
  "id": "BKS",
  "mac_id": null,
  "name": "Bengkulu",
  "country_code": "ID",
  "longitude": "102.33777777777777",
  "latitude": "-3.8622222222222224",
  "timezone_id": "Asia/Jakarta"
}, {
  "kind": "airport",
  "id": "CGK",
  "mac_id": null,
  "name": "Jakarta",
  "country_code": "ID",
  "longitude": "106.65",
  "latitude": "-6.1166666666666663",
  "timezone_id": "Asia/Jakarta"
}, {
  "kind": "airport",
  "id": "TJQ",
  "mac_id": null,
  "name": "Tanjung Pandan",
  "country_code": "ID",
  "longitude": "107.755",
  "latitude": "-2.7458333333333336",
  "timezone_id": "Asia/Jakarta"
}, {
  "kind": "airport",
  "id": "PGK",
  "mac_id": null,
  "name": "Pangkalpinang",
  "country_code": "ID",
  "longitude": "106.14111111111112",
  "latitude": "-2.1605555555555553",
  "timezone_id": "Asia/Jakarta"
}, {
  "kind": "airport",
  "id": "JOG",
  "mac_id": null,
  "name": "Yogyakarta",
  "country_code": "ID",
  "longitude": "110.43055555555556",
  "latitude": "-7.7897222222222222",
  "timezone_id": "Asia/Jakarta"
}, {
  "kind": "airport",
  "id": "BTH",
  "mac_id": null,
  "name": "Batam",
  "country_code": "ID",
  "longitude": "104.11166666666666",
  "latitude": "1.1255555555555556",
  "timezone_id": "Asia/Jakarta"
}, {
  "kind": "airport",
  "id": "MLG",
  "mac_id": null,
  "name": "Malang",
  "country_code": "ID",
  "longitude": "112.71444444444445",
  "latitude": "-7.9266666666666667",
  "timezone_id": "Asia/Jakarta"
}, {
  "kind": "airport",
  "id": "BDO",
  "mac_id": null,
  "name": "Bandung",
  "country_code": "ID",
  "longitude": "107.57583333333334",
  "latitude": "-6.9016666666666673",
  "timezone_id": "Asia/Jakarta"
}, {
  "kind": "airport",
  "id": "MES",
  "mac_id": "city/MES",
  "name": "Medan",
  "country_code": "ID",
  "longitude": "98.672777777777782",
  "latitude": "3.5611111111111109",
  "timezone_id": "Asia/Jakarta"
}, {
  "kind": "airport",
  "id": "BHV",
  "mac_id": null,
  "name": "Bahawalpur",
  "country_code": "PK",
  "longitude": "71.710833333333341",
  "latitude": "29.349722222222223",
  "timezone_id": "Asia/Karachi"
}, {
  "kind": "airport",
  "id": "UET",
  "mac_id": null,
  "name": "Quetta",
  "country_code": "PK",
  "longitude": "66.937777777777782",
  "latitude": "30.25138888888889",
  "timezone_id": "Asia/Karachi"
}, {
  "kind": "airport",
  "id": "KDU",
  "mac_id": null,
  "name": "Skardu",
  "country_code": "PK",
  "longitude": "75.733333333333334",
  "latitude": "35.3",
  "timezone_id": "Asia/Karachi"
}, {
  "kind": "airport",
  "id": "ISB",
  "mac_id": null,
  "name": "Islamabad",
  "country_code": "PK",
  "longitude": "73.099166666666662",
  "latitude": "33.616666666666667",
  "timezone_id": "Asia/Karachi"
}, {
  "kind": "airport",
  "id": "DSK",
  "mac_id": null,
  "name": "Dera Ismail Khan",
  "country_code": "PK",
  "longitude": "70.896666666666675",
  "latitude": "31.909444444444443",
  "timezone_id": "Asia/Karachi"
}, {
  "kind": "airport",
  "id": "DEA",
  "mac_id": null,
  "name": "Dera Ghazi Khan",
  "country_code": "PK",
  "longitude": "70.485833333333332",
  "latitude": "29.961111111111112",
  "timezone_id": "Asia/Karachi"
}, {
  "kind": "airport",
  "id": "SKT",
  "mac_id": null,
  "name": "Sialkot",
  "country_code": "PK",
  "longitude": "74.36388888888888",
  "latitude": "32.535555555555554",
  "timezone_id": "Asia/Karachi"
}, {
  "kind": "airport",
  "id": "LHE",
  "mac_id": null,
  "name": "Lahore",
  "country_code": "PK",
  "longitude": "74.402777777777786",
  "latitude": "31.520833333333332",
  "timezone_id": "Asia/Karachi"
}, {
  "kind": "airport",
  "id": "KHI",
  "mac_id": null,
  "name": "Karachi",
  "country_code": "PK",
  "longitude": "67.156944444444449",
  "latitude": "24.905555555555555",
  "timezone_id": "Asia/Karachi"
}, {
  "kind": "airport",
  "id": "PEW",
  "mac_id": null,
  "name": "Peshawar",
  "country_code": "PK",
  "longitude": "71.5",
  "latitude": "34.0",
  "timezone_id": "Asia/Karachi"
}, {
  "kind": "airport",
  "id": "TUK",
  "mac_id": null,
  "name": "Turbat",
  "country_code": "PK",
  "longitude": "63.06666666666667",
  "latitude": "25.983333333333334",
  "timezone_id": "Asia/Karachi"
}, {
  "kind": "airport",
  "id": "RYK",
  "mac_id": null,
  "name": "Rahim Yar Khan",
  "country_code": "PK",
  "longitude": "70.3",
  "latitude": "28.416666666666668",
  "timezone_id": "Asia/Karachi"
}, {
  "kind": "airport",
  "id": "SKZ",
  "mac_id": null,
  "name": "Sukkur",
  "country_code": "PK",
  "longitude": "68.791666666666671",
  "latitude": "27.721944444444443",
  "timezone_id": "Asia/Karachi"
}, {
  "kind": "airport",
  "id": "LYP",
  "mac_id": null,
  "name": "Faisalabad",
  "country_code": "PK",
  "longitude": "72.998055555555553",
  "latitude": "31.369166666666668",
  "timezone_id": "Asia/Karachi"
}, {
  "kind": "airport",
  "id": "MJD",
  "mac_id": null,
  "name": "Mohenjo Daro",
  "country_code": "PK",
  "longitude": "68.14166666666668",
  "latitude": "27.336388888888887",
  "timezone_id": "Asia/Karachi"
}, {
  "kind": "airport",
  "id": "MUX",
  "mac_id": null,
  "name": "Multan",
  "country_code": "PK",
  "longitude": "71.418055555555554",
  "latitude": "30.202777777777776",
  "timezone_id": "Asia/Karachi"
}, {
  "kind": "airport",
  "id": "RJA",
  "mac_id": null,
  "name": "Rajahmundry",
  "country_code": "IN",
  "longitude": "81.820555555555558",
  "latitude": "17.109722222222224",
  "timezone_id": "Asia/Kolkata"
}, {
  "kind": "airport",
  "id": "LUH",
  "mac_id": null,
  "name": "Ludhiana",
  "country_code": "IN",
  "longitude": "75.956666666666663",
  "latitude": "30.850555555555555",
  "timezone_id": "Asia/Kolkata"
}, {
  "kind": "airport",
  "id": "IXR",
  "mac_id": null,
  "name": "Ranchi",
  "country_code": "IN",
  "longitude": "85.3236111111111",
  "latitude": "23.314444444444444",
  "timezone_id": "Asia/Kolkata"
}, {
  "kind": "airport",
  "id": "HJR",
  "mac_id": null,
  "name": "Khajuraho",
  "country_code": "IN",
  "longitude": "79.922777777777782",
  "latitude": "24.824166666666667",
  "timezone_id": "Asia/Kolkata"
}, {
  "kind": "airport",
  "id": "KNU",
  "mac_id": null,
  "name": "Kanpur",
  "country_code": "IN",
  "longitude": "80.412500000000009",
  "latitude": "26.402777777777775",
  "timezone_id": "Asia/Kolkata"
}, {
  "kind": "airport",
  "id": "AGX",
  "mac_id": null,
  "name": "Agatti Island",
  "country_code": "IN",
  "longitude": "72.176111111111112",
  "latitude": "10.823611111111111",
  "timezone_id": "Asia/Kolkata"
}, {
  "kind": "airport",
  "id": "BLR",
  "mac_id": null,
  "name": "Bengaluru",
  "country_code": "IN",
  "longitude": "77.705555555555563",
  "latitude": "13.19888888888889",
  "timezone_id": "Asia/Kolkata"
}, {
  "kind": "airport",
  "id": "CCJ",
  "mac_id": null,
  "name": "Kozhikode",
  "country_code": "IN",
  "longitude": "75.950833333333335",
  "latitude": "11.136666666666667",
  "timezone_id": "Asia/Kolkata"
}, {
  "kind": "airport",
  "id": "IXM",
  "mac_id": null,
  "name": "Madurai",
  "country_code": "IN",
  "longitude": "78.093333333333334",
  "latitude": "9.8344444444444452",
  "timezone_id": "Asia/Kolkata"
}, {
  "kind": "airport",
  "id": "GWL",
  "mac_id": null,
  "name": "Gwalior",
  "country_code": "IN",
  "longitude": "78.23",
  "latitude": "26.29388888888889",
  "timezone_id": "Asia/Kolkata"
}, {
  "kind": "airport",
  "id": "IXE",
  "mac_id": null,
  "name": "Mangalore",
  "country_code": "IN",
  "longitude": "74.8938888888889",
  "latitude": "12.963888888888889",
  "timezone_id": "Asia/Kolkata"
}, {
  "kind": "airport",
  "id": "IXB",
  "mac_id": null,
  "name": "Bagdogra",
  "country_code": "IN",
  "longitude": "88.333333333333329",
  "latitude": "26.683333333333334",
  "timezone_id": "Asia/Kolkata"
}, {
  "kind": "airport",
  "id": "IDR",
  "mac_id": null,
  "name": "Indore",
  "country_code": "IN",
  "longitude": "75.805555555555557",
  "latitude": "22.723055555555554",
  "timezone_id": "Asia/Kolkata"
}, {
  "kind": "airport",
  "id": "DHM",
  "mac_id": null,
  "name": "Dharamsala",
  "country_code": "IN",
  "longitude": "76.259722222222223",
  "latitude": "32.164722222222224",
  "timezone_id": "Asia/Kolkata"
}, {
  "kind": "airport",
  "id": "JLR",
  "mac_id": null,
  "name": "Jabalpur",
  "country_code": "IN",
  "longitude": "80.051944444444445",
  "latitude": "23.177777777777781",
  "timezone_id": "Asia/Kolkata"
}, {
  "kind": "airport",
  "id": "BHU",
  "mac_id": null,
  "name": "Bhavnagar",
  "country_code": "IN",
  "longitude": "72.184444444444452",
  "latitude": "21.755",
  "timezone_id": "Asia/Kolkata"
}, {
  "kind": "airport",
  "id": "PAT",
  "mac_id": null,
  "name": "Patna",
  "country_code": "IN",
  "longitude": "85.089999999999989",
  "latitude": "25.590555555555554",
  "timezone_id": "Asia/Kolkata"
}, {
  "kind": "airport",
  "id": "PBD",
  "mac_id": null,
  "name": "Porbandar",
  "country_code": "IN",
  "longitude": "69.656944444444449",
  "latitude": "21.647222222222222",
  "timezone_id": "Asia/Kolkata"
}, {
  "kind": "airport",
  "id": "CCU",
  "mac_id": null,
  "name": "Kolkata",
  "country_code": "IN",
  "longitude": "88.44916666666667",
  "latitude": "22.6525",
  "timezone_id": "Asia/Kolkata"
}, {
  "kind": "airport",
  "id": "BHJ",
  "mac_id": null,
  "name": "Bhuj",
  "country_code": "IN",
  "longitude": "69.670555555555566",
  "latitude": "23.2875",
  "timezone_id": "Asia/Kolkata"
}, {
  "kind": "airport",
  "id": "DEL",
  "mac_id": null,
  "name": "Delhi",
  "country_code": "IN",
  "longitude": "77.100833333333327",
  "latitude": "28.573611111111109",
  "timezone_id": "Asia/Kolkata"
}, {
  "kind": "airport",
  "id": "HYD",
  "mac_id": null,
  "name": "Hyderabad",
  "country_code": "IN",
  "longitude": "78.396944444444458",
  "latitude": "17.260277777777777",
  "timezone_id": "Asia/Kolkata"
}, {
  "kind": "airport",
  "id": "BOM",
  "mac_id": null,
  "name": "Mumbai",
  "country_code": "IN",
  "longitude": "72.851666666666659",
  "latitude": "19.088055555555556",
  "timezone_id": "Asia/Kolkata"
}, {
  "kind": "airport",
  "id": "CJB",
  "mac_id": null,
  "name": "Coimbatore",
  "country_code": "IN",
  "longitude": "77.043333333333337",
  "latitude": "11.028333333333334",
  "timezone_id": "Asia/Kolkata"
}, {
  "kind": "airport",
  "id": "JRG",
  "mac_id": null,
  "name": "Jharsuguda",
  "country_code": "IN",
  "longitude": "84.05027778",
  "latitude": "21.91333333",
  "timezone_id": "Asia/Kolkata"
}, {
  "kind": "airport",
  "id": "STV",
  "mac_id": null,
  "name": "Surat Gujarat",
  "country_code": "IN",
  "longitude": "72.741666666666674",
  "latitude": "21.114166666666669",
  "timezone_id": "Asia/Kolkata"
}, {
  "kind": "airport",
  "id": "IXZ",
  "mac_id": null,
  "name": "Port Blair",
  "country_code": "IN",
  "longitude": "92.743611111111107",
  "latitude": "11.648333333333333",
  "timezone_id": "Asia/Kolkata"
}, {
  "kind": "airport",
  "id": "AGR",
  "mac_id": null,
  "name": "Agra",
  "country_code": "IN",
  "longitude": "77.962777777777774",
  "latitude": "27.158333333333331",
  "timezone_id": "Asia/Kolkata"
}, {
  "kind": "airport",
  "id": "IXU",
  "mac_id": null,
  "name": "Aurangabad",
  "country_code": "IN",
  "longitude": "75.401111111111121",
  "latitude": "19.863611111111112",
  "timezone_id": "Asia/Kolkata"
}, {
  "kind": "airport",
  "id": "JRH",
  "mac_id": null,
  "name": "Jorhat",
  "country_code": "IN",
  "longitude": "94.177777777777777",
  "latitude": "26.72861111111111",
  "timezone_id": "Asia/Kolkata"
}, {
  "kind": "airport",
  "id": "VTZ",
  "mac_id": null,
  "name": "Vishakhapatnam",
  "country_code": "IN",
  "longitude": "83.224722222222226",
  "latitude": "17.72111111111111",
  "timezone_id": "Asia/Kolkata"
}, {
  "kind": "airport",
  "id": "JAI",
  "mac_id": null,
  "name": "Jaipur",
  "country_code": "IN",
  "longitude": "75.812222222222218",
  "latitude": "26.824166666666667",
  "timezone_id": "Asia/Kolkata"
}, {
  "kind": "airport",
  "id": "DED",
  "mac_id": null,
  "name": "Dehra Dun",
  "country_code": "IN",
  "longitude": "78.180277777777789",
  "latitude": "30.19",
  "timezone_id": "Asia/Kolkata"
}, {
  "kind": "airport",
  "id": "JDH",
  "mac_id": null,
  "name": "Jodhpur",
  "country_code": "IN",
  "longitude": "73.047777777777782",
  "latitude": "26.260555555555555",
  "timezone_id": "Asia/Kolkata"
}, {
  "kind": "airport",
  "id": "KJB",
  "mac_id": null,
  "name": "Kurnool",
  "country_code": "IN",
  "longitude": "78.160833",
  "latitude": "15.706111",
  "timezone_id": "Asia/Kolkata"
}, {
  "kind": "airport",
  "id": "IXD",
  "mac_id": null,
  "name": "Allahabad",
  "country_code": "IN",
  "longitude": "81.736111111111114",
  "latitude": "25.439722222222223",
  "timezone_id": "Asia/Kolkata"
}, {
  "kind": "airport",
  "id": "SXR",
  "mac_id": null,
  "name": "Srinagar",
  "country_code": "IN",
  "longitude": "74.774166666666659",
  "latitude": "33.987222222222222",
  "timezone_id": "Asia/Kolkata"
}, {
  "kind": "airport",
  "id": "SAG",
  "mac_id": null,
  "name": "Shirdi",
  "country_code": "IN",
  "longitude": "74.394444444444446",
  "latitude": "19.69361111111111",
  "timezone_id": "Asia/Kolkata"
}, {
  "kind": "airport",
  "id": "IXS",
  "mac_id": null,
  "name": "Silchar",
  "country_code": "IN",
  "longitude": "92.9786111111111",
  "latitude": "24.913055555555555",
  "timezone_id": "Asia/Kolkata"
}, {
  "kind": "airport",
  "id": "BHO",
  "mac_id": null,
  "name": "Bhopal",
  "country_code": "IN",
  "longitude": "77.3386111111111",
  "latitude": "23.284722222222225",
  "timezone_id": "Asia/Kolkata"
}, {
  "kind": "airport",
  "id": "GAY",
  "mac_id": null,
  "name": "Gaya",
  "country_code": "IN",
  "longitude": "84.94583333333334",
  "latitude": "24.746666666666666",
  "timezone_id": "Asia/Kolkata"
}, {
  "kind": "airport",
  "id": "TRV",
  "mac_id": null,
  "name": "Thiruvananthapuram",
  "country_code": "IN",
  "longitude": "76.919722222222234",
  "latitude": "8.4797222222222217",
  "timezone_id": "Asia/Kolkata"
}, {
  "kind": "airport",
  "id": "BBI",
  "mac_id": null,
  "name": "Bhubaneshwar",
  "country_code": "IN",
  "longitude": "85.82",
  "latitude": "20.243611111111111",
  "timezone_id": "Asia/Kolkata"
}, {
  "kind": "airport",
  "id": "MAA",
  "mac_id": null,
  "name": "Chennai",
  "country_code": "IN",
  "longitude": "80.180555555555557",
  "latitude": "12.994444444444444",
  "timezone_id": "Asia/Kolkata"
}, {
  "kind": "airport",
  "id": "DIU",
  "mac_id": null,
  "name": "Diu",
  "country_code": "IN",
  "longitude": "70.916666666666671",
  "latitude": "20.716666666666665",
  "timezone_id": "Asia/Kolkata"
}, {
  "kind": "airport",
  "id": "UDR",
  "mac_id": null,
  "name": "Udaipur",
  "country_code": "IN",
  "longitude": "73.896111111111111",
  "latitude": "24.617777777777778",
  "timezone_id": "Asia/Kolkata"
}, {
  "kind": "airport",
  "id": "COK",
  "mac_id": null,
  "name": "Kochi",
  "country_code": "IN",
  "longitude": "76.390277777777783",
  "latitude": "10.155555555555557",
  "timezone_id": "Asia/Kolkata"
},